code_commune_INSEE;nom_commune_postal;latitude;longitude
01001;L ABERGEMENT CLEMENCIAT;46.15342552;4.926113542
01002;L ABERGEMENT DE VAREY;46.00918788;5.428016964
01004;AMBERIEU EN BUGEY;45.96084751;5.372925778
01005;AMBERIEUX EN DOMBES;45.99617999;4.912272508
01006;AMBLEON;45.7494989;5.594320174
01007;AMBRONAY;46.00559138;5.357606607
01008;AMBUTRIX;45.93671345;5.332809235
01009;ANDERT ET CONDON;45.78735653;5.657883079
01010;ANGLEFORT;45.90937151;5.795160057
01011;APREMONT;46.20549816;5.657814753
01012;ARANC;46.0015344;5.511306375
01013;ARANDAS;45.89081553;5.498704391
01014;ARBENT;46.2834936;5.690616512
01015;ARBOYS EN BUGEY;45.72376215;5.652630864
01016;ARBIGNY;46.4776763;4.959941686
01017;ARGIS;45.93371821;5.482511003
01019;ARMIX;45.85418385;5.583578387
01021;ARS SUR FORMANS;45.9934611;4.821996495
01022;ARTEMARE;45.86958917;5.690652839
01023;ASNIERES SUR SAONE;46.38572814;4.883874786
01024;ATTIGNAT;46.28618022;5.179523385
01025;BAGE LA VILLE;46.32332033;4.952867893
01026;BAGE LE CHATEL;46.30770692;4.928620842
01027;BALAN;45.83112265;5.107800192
01028;BANEINS;46.11412144;4.901464751
01029;BEAUPONT;46.42883602;5.260034057
01030;BEAUREGARD;46.00085802;4.756006647
01031;BELLIGNAT;46.23734971;5.636005288
01032;BELIGNEUX;45.85914648;5.139895059
01033;BELLEGARDE SUR VALSERINE;46.10679018;5.832027365
01034;BELLEY;45.74946978;5.684123655
01035;BELLEYDOUX;46.25303164;5.784717237
01036;BELMONT LUTHEZIEU;45.88474759;5.651157881
01037;BENONCES;45.83749747;5.482853309
01038;BENY;46.31886292;5.282534334
01039;BEON;45.85689201;5.752203151
01040;BEREZIAT;46.3674371;5.04021656
01041;BETTANT;45.93687183;5.36667617
01042;BEY;46.21917488;4.846426902
01043;BEYNOST;45.83903254;4.997380022
01044;BILLIAT;46.07913467;5.765918182
01045;BIRIEUX;45.95339955;5.0366648
01046;BIZIAT;46.22667943;4.940846732
01047;BLYES;45.84696861;5.251660559
01049;LA BOISSE;45.84462135;5.027832241
01050;BOISSEY;46.37279735;4.998976406
01051;BOLOZON;46.19603385;5.470950754
01052;BOULIGNEUX;46.02327748;4.992527093
01053;BOURG EN BRESSE;46.20515204;5.246021255
01054;BOURG ST CHRISTOPHE;45.88619345;5.143491969
01056;BOYEUX ST JEROME;46.03636776;5.463227447
01057;BOZ;46.40516881;4.913579718
01058;BREGNIER CORDON;45.64168547;5.61653371
01059;BRENAZ;45.95000829;5.737189233
01060;BRENOD;46.07599405;5.614183613
01061;BRENS;45.71350691;5.689981545
01062;BRESSOLLES;45.86942306;5.10094289
01063;BRION;46.16863273;5.546564222
01064;BRIORD;45.77083309;5.485374619
01065;BUELLAS;46.21041352;5.14487465
01066;LA BURBANCHE;45.85987093;5.546097146
01067;CEIGNES;46.12565334;5.494573792
01068;CERDON;46.07202026;5.475775861
01069;CERTINES;46.1337951;5.262395394
01071;CESSY;46.31568938;6.077984436
01072;CEYZERIAT;46.1832171;5.320072075
01073;CEYZERIEU;45.83355301;5.71933091
01074;CHALAMONT;46.00764917;5.16936568
01075;CHALEINS;46.03405454;4.798538386
01076;CHALEY;45.95333677;5.536825053
01077;CHALLES LA MONTAGNE;46.12215397;5.457553772
01078;CHALLEX;46.17683583;5.971150929
01079;CHAMPAGNE EN VALROMEY;45.93164474;5.693218901
01080;CHAMPDOR CORCELLES;46.01988442;5.600087597
01081;CHAMPFROMIER;46.22036577;5.822335731
01082;CHANAY;46.0056953;5.768933932
01083;CHANEINS;46.09349842;4.854733647
01084;CHANOZ CHATENAY;46.18618122;5.028077192
01085;LA CHAPELLE DU CHATELARD;46.07445369;5.021620559
01087;CHARIX;46.18563441;5.681189608
01088;CHARNOZ SUR AIN;45.87367869;5.221103256
01089;CHATEAU GAILLARD;45.97303902;5.307542735
01090;CHATENAY;46.02594022;5.20485904
01091;CHATILLON EN MICHAILLE;46.12933377;5.770176021
01092;CHATILLON LA PALUD;45.97480174;5.241602773
01093;CHATILLON SUR CHALARONNE;46.12323907;4.958100037
01094;CHAVANNES SUR REYSSOUZE;46.43797852;5.006937497
01095;CHAVANNES SUR SURAN;46.27501579;5.416494231
01096;CHAVEYRIAT;46.19915138;5.056406926
01097;CHAVORNAY;45.88240495;5.724998145
01098;CHAZEY BONS;45.79257706;5.684770632
01099;CHAZEY SUR AIN;45.8929449;5.255284985
01100;CHEIGNIEU LA BALME;45.82272043;5.605002397
01101;CHEVILLARD;46.11035126;5.58116056
01102;CHEVROUX;46.38249255;4.96288276
01103;CHEVRY;46.28315294;6.047079415
01104;CHEZERY FORENS;46.22257337;5.872481053
01105;CIVRIEUX;45.92246745;4.886337869
01106;CIZE;46.20038482;5.450825267
01107;CLEYZIEU;45.90214662;5.432726955
01108;COLIGNY;46.38666379;5.330822701
01109;COLLONGES;46.14192279;5.900402567
01110;COLOMIEU;45.7361469;5.62670101
01111;CONAND;45.88348108;5.47541329
01112;CONDAMINE;46.10583116;5.555682068
01113;CONDEISSIAT;46.15384698;5.084371717
01114;CONFORT;46.15437002;5.833193953
01115;CONFRANCON;46.27030418;5.057752179
01116;CONTREVOZ;45.80094031;5.620877682
01117;CONZIEU;45.72531022;5.60442351
01118;CORBONOD;45.96594732;5.789619704
01121;CORLIER;46.03368856;5.49635755
01122;CORMARANCHE EN BUGEY;45.94427728;5.608608285
01123;CORMORANCHE SUR SAONE;46.24035302;4.827656959
01124;CORMOZ;46.43366329;5.221812758
01125;CORVEISSIAT;46.25051072;5.471524679
01127;COURMANGOUX;46.32678645;5.355582418
01128;COURTES;46.4570082;5.111285467
01129;CRANS;45.96637931;5.194903909
01130;CRAS SUR REYSSOUZE;46.31308319;5.177967072
01133;CRESSIN ROCHEFORT;45.78264349;5.765462566
01134;CROTTET;46.28307234;4.877479712
01135;CROZET;46.29156597;5.995104171
01136;CRUZILLES LES MEPILLAT;46.22205887;4.875219351
01138;CULOZ;45.85599668;5.783983089
01139;CURCIAT DONGALON;46.48854569;5.163443368
01140;CURTAFOND;46.27315038;5.102089627
01141;CUZIEU;45.82000028;5.67655549
01142;DAGNEUX;45.85316169;5.072891668
01143;DIVONNE LES BAINS;46.37563335;6.115864761
01144;DOMMARTIN;46.33627762;4.99863894
01145;DOMPIERRE SUR VEYLE;46.06678837;5.216651997
01146;DOMPIERRE SUR CHALARONNE;46.14154066;4.901417147
01147;DOMSURE;46.42440664;5.293134797
01148;DORTAN;46.31332212;5.641465841
01149;DOUVRES;45.98429739;5.371069017
01150;DROM;46.21966031;5.367999949
01151;DRUILLAT;46.06757954;5.293616664
01152;ECHALLON;46.22713641;5.733304484
01153;ECHENEVEX;46.31608452;6.01926188
01154;ETREZ;46.33808918;5.192864146
01155;EVOSGES;45.96514754;5.502835999
01156;FARAMANS;45.91049421;5.124925856
01157;FAREINS;46.02099797;4.76200809
01158;FARGES;46.16623046;5.900194772
01159;FEILLENS;46.33658337;4.88507051
01160;FERNEY VOLTAIRE;46.25197892;6.108264038
01162;FLAXIEU;45.8113298;5.744590488
01163;FOISSIAT;46.37847598;5.184836414
01165;FRANCHELEINS;46.07359463;4.812935756
01166;FRANS;45.99390651;4.780331969
01167;GARNERANS;46.21362248;4.828431887
01169;GENOUILLEUX;46.12016117;4.79288195
01170;BEARD GEOVREISSIAT;46.18967335;5.551397814
01171;GEOVREISSET;46.25086216;5.612719739
01172;GERMAGNAT;46.30549833;5.450127986
01173;GEX;46.34718917;6.046505556
01174;GIRON;46.22271212;5.780498093
01175;GORREVOD;46.41494344;4.951205954
01177;GRAND CORENT;46.20738794;5.43318666
01179;GRIEGES;46.26336344;4.846213188
01180;GRILLY;46.33188107;6.11366768
01181;GROISSIAT;46.22600394;5.610954134
01183;GUEREINS;46.10662467;4.781594201
01184;HAUTECOURT ROMANECHE;46.16112419;5.429444576
01185;HAUTEVILLE LOMPNES;45.96965201;5.576272618
01186;HOSTIAZ;45.90616319;5.54077986
01187;HAUT VALROMEY;46.03174122;5.702670274
01188;ILLIAT;46.18669868;4.88840344
01189;INJOUX GENISSIAT;46.04977345;5.759913633
01190;INNIMOND;45.79196472;5.573893986
01191;IZENAVE;46.03816234;5.524479012
01192;IZERNORE;46.21797801;5.562582517
01193;IZIEU;45.65574964;5.639091408
01194;JASSANS RIOTTIER;45.97772391;4.759846379
01195;JASSERON;46.21500371;5.312153723
01196;JAYAT;46.3660829;5.114297016
01197;JOURNANS;46.14649824;5.334528332
01198;JOYEUX;45.94998998;5.102613269
01199;JUJURIEUX;46.04970415;5.410947719
01200;LABALME;46.09324913;5.494386852
01202;LAGNIEU;45.89170158;5.329175189
01203;LAIZ;46.24699197;4.89933491
01204;LE POIZAT LALLEYRIAT;46.14795921;5.718291942
01205;LANCRANS;46.13232027;5.840509851
01206;LANTENAY;46.05444059;5.541274212
01207;LAPEYROUSE;45.98591312;4.981966829
01208;LAVOURS;45.81088379;5.772673178
01209;LEAZ;46.1086518;5.876490179
01210;LELEX;46.28550109;5.929277138
01211;LENT;46.11602163;5.202006847
01212;LESCHEROUX;46.41148927;5.151071645
01213;LEYMENT;45.92699895;5.294765724
01214;LEYSSARD;46.16241874;5.476332975
01215;LHOPITAL;46.02381431;5.762367365
01216;LHUIS;45.74441414;5.53602067
01218;LOCHIEU;45.93024799;5.741312684
01219;LOMPNAS;45.81059434;5.523204579
01221;LOMPNIEU;45.96908656;5.659688165
01224;LOYETTES;45.79215641;5.217709716
01225;LURCY;46.06173003;4.78075207
01227;MAGNIEU;45.77540503;5.715409456
01228;MAILLAT;46.12016428;5.528543942
01229;MALAFRETAZ;46.32955457;5.143862996
01230;MANTENAY MONTLIN;46.43027545;5.106758997
01231;MANZIAT;46.36438306;4.902427772
01232;MARBOZ;46.34343125;5.24374535
01233;MARCHAMP;45.77384953;5.549851811
01234;MARIGNIEU;45.80103849;5.715703529
01235;MARLIEUX;46.05490732;5.074115082
01236;MARSONNAS;46.34091177;5.064342948
01237;MARTIGNAT;46.20307681;5.613840338
01238;MASSIEUX;45.90940168;4.827796601
01239;MASSIGNIEU DE RIVES;45.75715039;5.762053582
01240;MATAFELON GRANGES;46.25653194;5.539589337
01241;MEILLONNAS;46.24499763;5.335947385
01242;MERIGNAT;46.06485643;5.442106601
01243;MESSIMY SUR SAONE;46.04726708;4.759356439
01244;MEXIMIEUX;45.90605303;5.204048337
01245;BOHAS MEYRIAT RIGNAT;46.14270607;5.378010965
01246;MEZERIAT;46.24231021;5.04725417
01247;MIJOUX;46.36224517;6.009026319
01248;MIONNAY;45.89559393;4.924169674
01249;MIRIBEL;45.84420992;4.941067468
01250;MISERIEUX;45.97623253;4.810284717
01252;MOGNENEINS;46.14466961;4.820110702
01254;MONTAGNAT;46.16869691;5.279621079
01255;MONTAGNIEU;45.79944902;5.464286089
01257;MONTANGES;46.17325293;5.790060913
01258;MONTCEAUX;46.09628933;4.804535642
01259;MONTCET;46.21933323;5.111491321
01260;LE MONTELLIER;45.92874825;5.07092816
01261;MONTHIEUX;45.96227918;4.945559845
01262;MONTLUEL;45.89090062;5.019875662
01263;MONTMERLE SUR SAONE;46.08495732;4.760857949
01264;MONTRACOL;46.18672003;5.117060118
01265;MONTREAL LA CLUSE;46.17956882;5.595105501
01266;MONTREVEL EN BRESSE;46.32528114;5.112959663
01267;NURIEUX VOLOGNAT;46.1830721;5.514358123
01268;MURS ET GELIGNIEUX;45.64200143;5.660396849
01269;NANTUA;46.15378454;5.613527938
01272;NEUVILLE LES DAMES;46.1567753;5.009424324
01273;NEUVILLE SUR AIN;46.09096548;5.373497847
01274;LES NEYROLLES;46.13429371;5.637145179
01275;NEYRON;45.81841925;4.930904569
01276;NIEVROZ;45.82229411;5.059496292
01277;NIVOLLET MONTGRIFFON;45.99994482;5.458478154
01279;ONCIEU;45.96511655;5.471466175
01280;ORDONNAZ;45.83396904;5.53957943
01281;ORNEX;46.27745575;6.094547236
01282;OUTRIAZ;46.06779664;5.556975474
01283;OYONNAX;46.26054359;5.653443209
01284;OZAN;46.38671689;4.918058402
01285;PARCIEUX;45.91842679;4.827474234
01286;PARVES ET NATTAGES;45.74373402;5.738007371
01288;PERON;46.19135542;5.919687512
01289;PERONNAS;46.17119034;5.218021696
01290;PEROUGES;45.88039458;5.17955875
01291;PERREX;46.24650656;4.974649403
01293;PEYRIAT;46.14981841;5.505723123
01294;PEYRIEU;45.67624287;5.679128092
01295;PEYZIEUX SUR SAONE;46.12263319;4.822432267
01296;PIRAJOUX;46.38580129;5.27417594
01297;PIZAY;45.89285096;5.08915466
01298;PLAGNE;46.18830384;5.717638112
01299;LE PLANTAY;46.02302642;5.089120469
01301;POLLIAT;46.24631086;5.137944124
01302;POLLIEU;45.79653735;5.747945155
01303;PONCIN;46.08953059;5.416812669
01304;PONT D AIN;46.05420771;5.347036526
01305;PONT DE VAUX;46.44228645;4.928624594
01306;PONT DE VEYLE;46.26372151;4.881860681
01307;PORT;46.15596314;5.576158329
01308;POUGNY;46.14509147;5.951004793
01309;POUILLAT;46.32193015;5.423180005
01310;PREMEYZEL;45.68062631;5.643960814
01311;PREMILLIEU;45.87645715;5.564750104
01313;PREVESSIN MOENS;46.25827228;6.072232519
01314;PRIAY;46.01975215;5.285233538
01316;PUGIEU;45.81767948;5.649704055
01317;RAMASSE;46.19055509;5.35572057
01318;RANCE;45.96739052;4.86343026
01319;RELEVANT;46.08436579;4.941768454
01320;REPLONGES;46.3077356;4.874693827
01321;REVONNAS;46.16153558;5.335439164
01322;REYRIEUX;45.93676524;4.82840396
01323;REYSSOUZE;46.42855691;4.912850563
01325;RIGNIEUX LE FRANC;45.95187627;5.169366711
01328;ROMANS;46.12375208;5.021713118
01329;ROSSILLON;45.83638546;5.59926863
01330;RUFFIEU;46.00371089;5.653223915
01331;ST ALBAN;46.09833355;5.455738398
01332;ST ANDRE DE BAGE;46.29854157;4.914115658
01333;ST ANDRE DE CORCY;45.92700195;4.953733245
01334;ST ANDRE D HUIRIAT;46.21409609;4.912913588
01335;ST ANDRE LE BOUCHOUX;46.11313996;5.08023769
01336;ST ANDRE SUR VIEUX JONC;46.14924105;5.141752001
01337;ST BENIGNE;46.45191732;4.953098259
01338;GROSLEE ST BENOIT;45.68918423;5.584397256
01339;ST BERNARD;45.94938306;4.742766285
01341;ST CHAMP;45.7825741;5.732653146
01342;STE CROIX;45.89552248;5.049355362
01343;ST CYR SUR MENTHON;46.27540056;4.967571052
01344;ST DENIS LES BOURG;46.21119985;5.184628068
01345;ST DENIS EN BUGEY;45.94885512;5.323677017
01346;ST DIDIER D AUSSIAT;46.30699921;5.058206977
01347;ST DIDIER DE FORMANS;45.95649261;4.777667649
01348;ST DIDIER SUR CHALARONNE;46.18404087;4.816456662
01349;ST ELOI;45.93224949;5.151870412
01350;ST ETIENNE DU BOIS;46.27494473;5.284285576
01351;ST ETIENNE SUR CHALARONNE;46.14680596;4.866964542
01352;ST ETIENNE SUR REYSSOUZE;46.4030399;5.006055816
01353;STE EUPHEMIE;45.96697983;4.794781892
01354;ST GENIS POUILLY;46.25453933;6.036290735
01355;ST GENIS SUR MENTHON;46.28159556;5.013118264
01356;ST GEORGES SUR RENON;46.10379513;5.030019675
01357;ST GERMAIN DE JOUX;46.18219554;5.746722598
01358;ST GERMAIN LES PAROISSES;45.77097492;5.617534408
01359;ST GERMAIN SUR RENON;46.07972854;5.06090904
01360;ST JEAN DE GONVILLE;46.21785857;5.942030938
01361;ST JEAN DE NIOST;45.84050026;5.211674305
01362;ST JEAN DE THURIGNEUX;45.95984243;4.899364107
01363;ST JEAN LE VIEUX;46.02914377;5.382528355
01364;ST JEAN SUR REYSSOUZE;46.39724799;5.062977638
01365;ST JEAN SUR VEYLE;46.26836321;4.92198367
01366;STE JULIE;45.88197232;5.284523046
01367;ST JULIEN SUR REYSSOUZE;46.39976555;5.10354296
01368;ST JULIEN SUR VEYLE;46.20148621;4.959356342
01369;ST JUST;46.19297586;5.284941814
01370;ST LAURENT SUR SAONE;46.30514863;4.839492027
01371;ST MARCEL;45.94858037;4.989667102
01372;ST MARTIN DE BAVEL;45.84821267;5.678890992
01373;ST MARTIN DU FRENE;46.13598378;5.571060164
01374;ST MARTIN DU MONT;46.10615008;5.325514708
01375;ST MARTIN LE CHATEL;46.29144587;5.122917151
01376;ST MAURICE DE BEYNOST;45.83437091;4.977262152
01378;ST MAURICE DE GOURDANS;45.82001919;5.169804156
01379;ST MAURICE DE REMENS;45.95274712;5.270827648
01380;ST NIZIER LE BOUCHOUX;46.45285371;5.175990659
01381;ST NIZIER LE DESERT;46.05286156;5.142461318
01382;STE OLIVE;46.01420061;4.93624895
01383;ST PAUL DE VARAX;46.09566916;5.127624702
01384;ST RAMBERT EN BUGEY;45.95046317;5.440170846
01385;ST REMY;46.18466421;5.167713548
01386;ST SORLIN EN BUGEY;45.88630844;5.37608915
01387;ST SULPICE;46.32098061;5.041483893
01388;ST TRIVIER DE COURTES;46.46129693;5.066791957
01389;ST TRIVIER SUR MOIGNANS;46.0618478;4.901589489
01390;ST VULBAS;45.82223151;5.270196029
01391;SALAVRE;46.36353967;5.347423872
01392;SAMOGNAT;46.26487158;5.586076893
01393;SANDRANS;46.06569615;4.982826732
01396;SAULT BRENAZ;45.86540388;5.404161041
01397;SAUVERNY;46.31269082;6.110438364
01398;SAVIGNEUX;45.99734683;4.857620091
01399;SEGNY;46.29359284;6.072877438
01400;SEILLONNAZ;45.79769766;5.498106585
01401;SERGY;46.2626243;5.989145532
01402;SERMOYER;46.49819919;4.978560204
01403;SERRIERES DE BRIORD;45.81332194;5.441258804
01404;SERRIERES SUR AIN;46.14669778;5.450233629
01405;SERVAS;46.13855406;5.17887071
01406;SERVIGNAT;46.43464979;5.055599731
01407;SEYSSEL;45.94841182;5.826169799
01408;SIMANDRE SUR SURAN;46.23404716;5.422408153
01410;SONTHONNAX LA MONTAGNE;46.22297687;5.505668888
01411;SOUCLIN;45.87817986;5.430586275
01412;SULIGNAT;46.17353833;4.957723825
01413;SURJOUX;46.03040211;5.799579206
01414;SUTRIEU;45.93113678;5.649882481
01415;TALISSIEU;45.86371671;5.720904111
01416;TENAY;45.92269828;5.514539236
01417;THEZILLIEU;45.89318836;5.597006389
01418;THIL;45.81692142;5.018409887
01419;THOIRY;46.24354759;5.96506298
01420;THOISSEY;46.17009435;4.793870958
01421;TORCIEU;45.92125055;5.404002822
01422;TOSSIAT;46.13847902;5.304000559
01423;TOUSSIEUX;45.95989829;4.828986106
01424;TRAMOYES;45.87456703;4.963926833
01425;LA TRANCLIERE;46.09700271;5.260998755
01426;VAL REVERMONT;46.28032818;5.360831652
01427;TREVOUX;45.94067166;4.771441501
01428;VALEINS;46.11464674;4.865516969
01429;VANDEINS;46.2178068;5.08189057
01430;VARAMBON;46.04339282;5.294794459
01431;VAUX EN BUGEY;45.92012055;5.363531842
01432;VERJON;46.34590937;5.348530196
01433;VERNOUX;46.48482298;5.105904131
01434;VERSAILLEUX;45.98543735;5.112048192
01435;VERSONNEX;46.29976314;6.100579522
01436;VESANCY;46.36107681;6.084706655
01437;VESCOURS;46.47439608;5.026174266
01439;VESINES;46.35933978;4.862658522
01441;VIEU D IZENAVE;46.08533867;5.549221002
01442;VIEU;45.88983926;5.689993999
01443;VILLARS LES DOMBES;45.99271502;5.045078566
01444;VILLEBOIS;45.84856246;5.447111175
01445;VILLEMOTIER;46.3458539;5.31036161
01446;VILLENEUVE;46.03190488;4.851825261
01447;VILLEREVERSURE;46.19267504;5.394767941
01448;VILLES;46.09542931;5.756925042
01449;VILLETTE SUR AIN;46.0099989;5.252145472
01450;VILLIEU LOYES MOLLON;45.932015;5.229530716
01451;VIRIAT;46.25089856;5.223022492
01452;VIRIEU LE GRAND;45.84644179;5.639719403
01453;VIRIEU LE PETIT;45.90636082;5.737070515
01454;VIRIGNIN;45.72673878;5.712823309
01456;VONGNES;45.81290595;5.725366668
01457;VONNAS;46.21688714;4.997443737
02001;ABBECOURT;49.59915187;3.177082329
02002;ACHERY;49.69361878;3.397356321
02003;ACY;49.34719635;3.418176098
02004;AGNICOURT ET SECHELLES;49.71665736;3.960432118
02005;AGUILCOURT;49.3936508;3.968036794
02006;AISONVILLE ET BERNOVILLE;49.93014816;3.511202056
02007;AIZELLES;49.48480029;3.818702553
02008;AIZY JOUY;49.43842568;3.511491854
02009;ALAINCOURT;49.76671208;3.366390436
02010;ALLEMANT;49.46244406;3.453942759
02011;AMBLENY;49.37626729;3.183346792
02012;AMBRIEF;49.32152501;3.403621963
02013;AMIFONTAINE;49.49878703;3.922789933
02014;AMIGNY ROUY;49.61082759;3.302893416
02015;ANCIENVILLE;49.21863896;3.208088098
02016;ANDELAIN;49.64118082;3.36954409
02017;ANGUILCOURT LE SART;49.69408792;3.428231824
02018;ANIZY LE CHATEAU;49.50450583;3.43129585
02019;ANNOIS;49.72106741;3.176115014
02020;ANY MARTIN RIEUX;49.88237068;4.223513469
02021;ARCHON;49.74412662;4.119087658
02022;ARCY STE RESTITUE;49.25487994;3.478290763
02023;ARMENTIERES SUR OURCQ;49.17342325;3.387896479
02024;ARRANCY;49.49890164;3.764723001
02025;ARTEMPS;49.76179993;3.197250955
02027;ASSIS SUR SERRE;49.68037391;3.554916927
02028;ATHIES SOUS LAON;49.57577507;3.690066321
02029;ATTILLY;49.85544891;3.153633057
02030;AUBENCHEUL AUX BOIS;50.02399039;3.261032156
02031;AUBENTON;49.82523068;4.1906694
02032;AUBIGNY AUX KAISNES;49.77215246;3.119256599
02033;AUBIGNY EN LAONNOIS;49.49688212;3.792828508
02034;AUDIGNICOURT;49.47771572;3.127185028
02035;AUDIGNY;49.86606454;3.63125999
02036;AUGY;49.34006372;3.511019882
02037;AULNOIS SOUS LAON;49.61981175;3.609819621
02038;LES AUTELS;49.76088553;4.224225058
02039;AUTREMENCOURT;49.70512444;3.794198673
02040;AUTREPPES;49.89698493;3.856010335
02041;AUTREVILLE;49.58608753;3.236027084
02042;AZY SUR MARNE;49.00397011;3.35913214
02043;BAGNEUX;49.46011397;3.2794533
02044;BANCIGNY;49.79787116;4.036698661
02046;BARENTON BUGNY;49.62185898;3.661030566
02047;BARENTON CEL;49.64775173;3.644699975
02048;BARENTON SUR SERRE;49.66833977;3.68940611
02049;BARISIS AUX BOIS;49.57797937;3.328044875
02050;BARZY EN THIERACHE;50.03953759;3.749015954
02051;BARZY SUR MARNE;49.09061962;3.562141173
02052;BASSOLES AULERS;49.53328137;3.384926048
02053;VALLEES EN CHAMPAGNE;48.98969158;3.60486686
02054;BAZOCHES SUR VESLES;49.30705868;3.615831266
02055;BEAUME;49.82112818;4.152000665
02056;BEAUMONT EN BEINE;49.68746339;3.131333693
02057;BEAUREVOIR;49.99656086;3.329708425
02058;BEAURIEUX;49.4028068;3.75287162
02059;BEAUTOR;49.64831996;3.338111881
02060;BEAUVOIS EN VERMANDOIS;49.83399218;3.102820455
02061;BECQUIGNY;50.01587038;3.458986445
02062;BELLEAU;49.08291283;3.300491733
02063;BELLENGLISE;49.92610571;3.244199469
02064;BELLEU;49.35675743;3.340516883
02065;BELLICOURT;49.95929917;3.230208509
02066;BENAY;49.75509412;3.309098981
02067;BERGUES SUR SAMBRE;50.02946862;3.711371001
02068;BERLANCOURT;49.78085336;3.757107147
02069;BERLISE;49.66222906;4.113140869
02070;BERNOT;49.87936513;3.486654564
02071;BERNY RIVIERE;49.41132889;3.149752727
02072;BERRIEUX;49.4823564;3.852103184
02073;BERRY AU BAC;49.40849851;3.898549779
02074;BERTAUCOURT EPOURDON;49.62760566;3.397489889
02075;BERTHENICOURT;49.77880582;3.372472411
02076;BERTRICOURT;49.39752857;4.011461787
02077;BERZY LE SEC;49.31721253;3.296660867
02078;BESME;49.53416828;3.164741714
02079;BESMONT;49.82336131;4.117689078
02080;BESNY ET LOIZY;49.59287928;3.576572388
02081;BETHANCOURT EN VAUX;49.62905478;3.140646579
02082;BEUGNEUX;49.22757593;3.416474037
02083;BEUVARDES;49.1308547;3.491650191
02084;BEZU LE GUERY;49.01025918;3.227646104
02085;BEZU ST GERMAIN;49.10467329;3.408125132
02086;BICHANCOURT;49.57877655;3.212630174
02087;BIEUXY;49.44760506;3.269858908
02088;BIEVRES;49.4921823;3.71373569
02089;BILLY SUR AISNE;49.35565565;3.376099476
02090;BILLY SUR OURCQ;49.22150329;3.299032677
02091;BLANZY LES FISMES;49.33726737;3.671868408
02093;BLERANCOURT;49.50762239;3.151795022
02094;BLESMES;49.02649194;3.464054747
02095;BOHAIN EN VERMANDOIS;49.98903287;3.46522355
02096;BOIS LES PARGNY;49.73693507;3.654148345
02097;BONCOURT;49.6264862;3.956447719
02098;BONNEIL;49.00824198;3.345947847
02099;BONNESVALYN;49.12640495;3.325416618
02100;BONY;49.99086437;3.221160024
02101;BOSMONT SUR SERRE;49.73906532;3.867335684
02102;BOUCONVILLE VAUCLAIR;49.4606213;3.756586078
02103;BOUE;50.0114554;3.714320249
02104;BOUFFIGNEREUX;49.3788375;3.846260146
02105;BOURESCHES;49.06717874;3.317282269
02106;BOURG ET COMIN;49.4022354;3.659443428
02107;BOURGUIGNON SOUS COUCY;49.54276416;3.154229577
02108;BOURGUIGNON SOUS MONTBAVIN;49.52880569;3.537772361
02109;LA BOUTEILLE;49.8778829;3.962435302
02110;BRAINE;49.34847193;3.535966297
02111;BRANCOURT EN LAONNOIS;49.51762866;3.412823213
02112;BRANCOURT LE GRAND;49.98081057;3.393911921
02114;BRASLES;49.05679272;3.424534097
02115;BRAYE EN LAONNOIS;49.43757734;3.609779763
02116;BRAYE EN THIERACHE;49.7675471;3.962658419
02117;BRAY ST CHRISTOPHE;49.7746701;3.140709651
02118;BRAYE;49.42213614;3.378290065
02119;BRECY;49.1398626;3.42373097
02120;BRENELLE;49.36800521;3.544203557
02121;BRENY;49.18427834;3.349724954
02122;BRIE;49.59739623;3.473363466
02123;BRISSAY CHOIGNY;49.72282997;3.396397683
02124;BRISSY HAMEGICOURT;49.74327864;3.399688379
02125;BRUMETZ;49.11030745;3.152914451
02126;BRUNEHAMEL;49.77181006;4.186493986
02127;BRUYERES SUR FERE;49.19965715;3.445358465
02128;BRUYERES ET MONTBERAULT;49.52396155;3.669546938
02129;BRUYS;49.26216816;3.568634398
02130;BUCILLY;49.86581035;4.093233699
02131;BUCY LE LONG;49.38844472;3.398286027
02132;BUCY LES CERNY;49.57908526;3.496908306
02133;BUCY LES PIERREPONT;49.64679981;3.903583116
02134;BUIRE;49.90702963;4.056745423
02135;BUIRONFOSSE;49.95771111;3.838016082
02136;BURELLES;49.76870469;3.911963697
02137;BUSSIARES;49.07659106;3.250261919
02138;BUZANCY;49.30995282;3.347874408
02139;CAILLOUEL CREPIGNY;49.61760556;3.121695273
02140;CAMELIN;49.52052483;3.128548536
02141;LA CAPELLE;49.97321095;3.913984835
02142;CASTRES;49.80138941;3.253252451
02143;LE CATELET;50.00097794;3.242309846
02144;CAULAINCOURT;49.86465838;3.111264895
02145;CAUMONT;49.63726591;3.173476128
02146;CELLES LES CONDE;49.0148161;3.570074238
02148;CELLES SUR AISNE;49.41592645;3.474469274
02149;CERIZY;49.7670334;3.332550214
02150;CERNY EN LAONNOIS;49.45001501;3.679824395
02151;CERNY LES BUCY;49.5778659;3.546467639
02152;CERSEUIL;49.32478478;3.517469191
02153;CESSIERES;49.55957881;3.501904057
02154;CHACRISE;49.3002009;3.397591025
02155;CHAILLEVOIS;49.50816545;3.522346059
02156;CHALANDRY;49.67026752;3.644455095
02157;CHAMBRY;49.59863661;3.672008326
02158;CHAMOUILLE;49.4720647;3.670626731
02159;CHAMPS;49.54349679;3.261831124
02160;CHAOURSE;49.70078981;3.985622923
02162;LA CHAPELLE SUR CHEZY;48.94920492;3.37662807
02163;CHARLY SUR MARNE;48.98986783;3.293651579
02164;LE CHARMEL;49.1121866;3.54125961
02165;CHARMES;49.65085324;3.385251042
02166;CHARTEVES;49.08981274;3.508718385
02167;CHASSEMY;49.37834108;3.50271468
02168;CHATEAU THIERRY;49.05640708;3.381600048
02169;CHATILLON LES SONS;49.76185031;3.703125089
02170;CHATILLON SUR OISE;49.79381617;3.416304017
02171;CHAUDARDES;49.3962563;3.789421537
02172;CHAUDUN;49.3150223;3.252763382
02173;CHAUNY;49.61988067;3.21875355
02174;CHAVIGNON;49.47944371;3.519368956
02175;CHAVIGNY;49.42327304;3.305674907
02176;CHAVONNE;49.40731622;3.562432096
02177;CHERET;49.51416617;3.687188514
02178;CHERMIZY AILLES;49.46298881;3.71995479
02179;CHERY CHARTREUVE;49.25568672;3.604846294
02180;CHERY LES POUILLY;49.64883899;3.594162713
02181;CHERY LES ROZOY;49.72221929;4.101198928
02182;CHEVENNES;49.81836642;3.737131332
02183;CHEVREGNY;49.46610095;3.593653336
02184;CHEVRESIS MONCEAU;49.76167804;3.583758397
02185;CHEZY EN ORXOIS;49.12680319;3.167590944
02186;CHEZY SUR MARNE;48.98399666;3.382264851
02187;CHIERRY;49.03515536;3.433023243
02188;CHIGNY;49.92988461;3.774896454
02189;CHIVRES EN LAONNOIS;49.62686068;3.856032556
02190;CHIVRES VAL;49.40292982;3.438360387
02191;CHIVY LES ETOUVELLES;49.53263036;3.585621688
02192;CHOUY;49.21673341;3.247080045
02193;CIERGES;49.16483168;3.604117888
02194;CILLY;49.7490012;3.840000228
02195;CIRY SALSOGNE;49.36748684;3.467782991
02196;CLACY ET THIERRET;49.55241372;3.565571854
02197;CLAIRFONTAINE;49.97399452;3.986606553
02198;CLAMECY;49.42810778;3.363787548
02199;CLASTRES;49.74887697;3.230203341
02200;CLERMONT LES FERMES;49.66016543;3.943203271
02201;COEUVRES ET VALSERY;49.32954322;3.152904535
02203;COINCY;49.1632281;3.436337955
02204;COINGT;49.79232464;4.095913039
02205;COLLIGIS CRANDELAIN;49.46661593;3.630421819
02206;COLONFAY;49.85845868;3.711386836
02207;COMMENCHON;49.64169134;3.150954373
02208;CONCEVREUX;49.37644786;3.788304462
02209;CONDE EN BRIE;49.00161018;3.56117
02210;CONDE SUR AISNE;49.40075528;3.465715911
02211;CONDE SUR SUIPPE;49.41383703;3.94498449
02212;CONDREN;49.63702362;3.277266321
02213;CONNIGIS;49.03593639;3.532872827
02214;CONTESCOURT;49.79169346;3.234283507
02215;CORBENY;49.4620559;3.826540824
02216;CORCY;49.25498921;3.19724367
02217;COUCY LE CHATEAU AUFFRIQUE;49.51597096;3.31548893
02218;COUCY LES EPPES;49.55661591;3.777167119
02219;COUCY LA VILLE;49.54057924;3.34372156
02220;COULONGES COHAN;49.19804635;3.62776593
02221;COUPRU;49.03135363;3.274380147
02222;COURBES;49.68158888;3.46004835
02223;COURBOIN;48.99609172;3.506906879
02224;COURCELLES SUR VESLE;49.34802589;3.576840359
02225;COURCHAMPS;49.11642308;3.263037144
02226;COURMELLES;49.34343283;3.301991129
02227;COURMONT;49.13774442;3.575468805
02228;COURTEMONT VARENNES;49.07152889;3.541680798
02229;COURTRIZY ET FUSSIGNY;49.51409575;3.795038006
02230;COUVRELLES;49.3339841;3.484869541
02231;COUVRON ET AUMENCOURT;49.64587765;3.524466846
02232;COYOLLES;49.21330897;3.013061738
02233;CRAMAILLE;49.22855417;3.452273031
02234;CRAONNE;49.44763683;3.792032808
02235;CRAONNELLE;49.42549993;3.776864832
02236;CRECY AU MONT;49.48390318;3.311950743
02237;CRECY SUR SERRE;49.69862419;3.622565648
02238;CREPY;49.60825349;3.512507059
02239;CREZANCY;49.04287138;3.511382017
02240;CROIX FONSOMME;49.93067611;3.39430326
02241;LA CROIX SUR OURCQ;49.15980106;3.350489053
02242;CROUTTES SUR MARNE;48.97912002;3.247576421
02243;CROUY;49.40785354;3.366400205
02244;CRUPILLY;49.93138288;3.752491983
02245;CUFFIES;49.40811268;3.322369588
02246;CUGNY;49.70310091;3.154244989
02248;CUIRIEUX;49.68344043;3.819947509
02249;CUIRY HOUSSE;49.29040334;3.488432485
02250;CUIRY LES CHAUDARDES;49.38976317;3.762275126
02251;CUIRY LES IVIERS;49.76617512;4.103977517
02252;CUISSY ET GENY;49.40345753;3.706123078
02253;CUISY EN ALMONT;49.42074171;3.248875102
02254;CUTRY;49.34427539;3.191271695
02255;CYS LA COMMUNE;49.38371638;3.572354201
02256;DAGNY LAMBERCY;49.76905623;4.042182486
02257;DALLON;49.82406175;3.230312197
02258;DAMMARD;49.14705226;3.177197096
02259;DAMPLEUX;49.24144077;3.144131288
02260;DANIZY;49.66657386;3.40089557
02261;DERCY;49.70970598;3.684998038
02262;DEUILLET;49.62859912;3.360515983
02263;DHUIZEL;49.36022013;3.614875908
02264;DIZY LE GROS;49.63555757;4.013128802
02265;DOHIS;49.76675541;4.141787465
02266;DOLIGNON;49.73382985;4.086378828
02267;DOMMIERS;49.32907315;3.216346869
02268;DOMPTIN;49.01569957;3.272964978
02269;DORENGT;49.96520642;3.703375397
02270;DOUCHY;49.79409051;3.13035849
02271;DRAVEGNY;49.23919061;3.641284538
02272;DROIZY;49.27735644;3.389650078
02273;DURY;49.7512353;3.133771217
02274;EBOULEAU;49.67811102;3.882594657
02275;EFFRY;49.91911807;3.987901732
02276;ENGLANCOURT;49.92588258;3.807186944
02277;EPAGNY;49.47179105;3.25384432
02278;EPARCY;49.88613702;4.070237121
02279;EPAUX BEZU;49.10299884;3.353593503
02280;EPIEDS;49.10451802;3.450723474
02281;L EPINE AUX BOIS;48.8992804;3.443841381
02282;EPPES;49.55238551;3.739808584
02283;ERLON;49.73482782;3.705344503
02284;ERLOY;49.91959092;3.837649205
02286;ESQUEHERIES;49.98223009;3.75309921
02287;ESSIGNY LE GRAND;49.77407801;3.272144593
02288;ESSIGNY LE PETIT;49.89618254;3.367422602
02289;ESSISES;48.96669048;3.413964917
02290;ESSOMES SUR MARNE;49.0341132;3.340141742
02291;ESTREES;49.97058429;3.280153617
02292;ETAMPES SUR MARNE;49.03175585;3.417776646
02293;ETAVES ET BOCQUIAUX;49.93103543;3.450813012
02294;ETOUVELLES;49.5186451;3.58156181
02295;ETREAUPONT;49.89626338;3.923489153
02296;ETREILLERS;49.83257762;3.158000686
02297;ETREPILLY;49.08226814;3.348020636
02298;ETREUX;49.99960107;3.658904917
02299;EVERGNICOURT;49.4564307;4.036317539
02301;FAUCOUCOURT;49.53344182;3.466639026
02302;FAVEROLLES;49.22706478;3.178144815
02303;FAYET;49.87108448;3.252788459
02304;LA FERE;49.66628281;3.369388347
02305;FERE EN TARDENOIS;49.18750009;3.511064255
02306;LA FERTE CHEVRESIS;49.74099735;3.551297707
02307;LA FERTE MILON;49.17598744;3.142376418
02308;FESMY LE SART;50.04821549;3.698254692
02309;FESTIEUX;49.52526429;3.760136317
02310;FIEULAINE;49.90185023;3.445940459
02311;FILAIN;49.45288075;3.557406354
02312;LA FLAMENGRIE;50.00020362;3.924666902
02313;FLAVIGNY LE GRAND ET BEAURAIN;49.88655057;3.674064094
02315;FLAVY LE MARTEL;49.70472405;3.194514036
02316;FLEURY;49.26528631;3.159470647
02317;FLUQUIERES;49.80043509;3.15658582
02318;FOLEMBRAY;49.54928206;3.293191656
02319;FONSOMME;49.90124673;3.396506648
02320;FONTAINE LES CLERCS;49.80784393;3.212534129
02321;FONTAINE LES VERVINS;49.85373906;3.905430254
02322;FONTAINE NOTRE DAME;49.87857247;3.423805968
02323;FONTAINE UTERTE;49.92528417;3.367962342
02324;FONTENELLE;50.03094524;3.846253658
02326;FONTENOY;49.40999994;3.194547587
02327;FORESTE;49.8055794;3.096159367
02328;FOSSOY;49.04499012;3.485231267
02329;FOURDRAIN;49.61941845;3.460491211
02330;FRANCILLY SELENCY;49.85465969;3.228220369
02331;FRANQUEVILLE;49.81641256;3.797702617
02332;FRESNES EN TARDENOIS;49.14279483;3.54893407
02333;FRESNES;49.55480786;3.370180225
02334;FRESNOY LE GRAND;49.95407247;3.418580325
02335;FRESSANCOURT;49.6284784;3.427279104
02336;FRIERES FAILLOUEL;49.68355526;3.236804303
02337;FROIDESTREES;49.94270925;3.910321752
02338;FROIDMONT COHARTILLE;49.68187689;3.720708448
02339;GANDELU;49.08320891;3.181562316
02340;GAUCHY;49.82346886;3.286491897
02341;GERCY;49.81581081;3.871332773
02342;GERGNY;49.93263192;3.929723847
02343;GERMAINE;49.81248438;3.119030424
02344;GERNICOURT;49.39523824;3.863821099
02345;GIBERCOURT;49.73935202;3.282696473
02346;GIZY;49.61049608;3.767861522
02347;GLAND;49.05797405;3.457139315
02349;GOUDELANCOURT LES BERRIEUX;49.49467646;3.85858671
02350;GOUDELANCOURT LES PIERREPONT;49.67832968;3.851627403
02351;GOUSSANCOURT;49.16084592;3.656586818
02352;GOUY;49.99874869;3.264583056
02353;GRANDLUP ET FAY;49.65126878;3.736469505
02354;GRANDRIEUX;49.72917185;4.18792495
02355;GRICOURT;49.88699478;3.239608175
02356;GRISOLLES;49.13018351;3.372173699
02357;GRONARD;49.79631969;3.881769186
02358;GROUGIS;49.95081104;3.530980817
02359;GRUGIES;49.81009413;3.275162381
02360;GUIGNICOURT;49.44330176;3.955345825
02361;GUISE;49.89604151;3.624760629
02362;GUIVRY;49.65162576;3.121034765
02363;GUNY;49.51201531;3.260826581
02364;GUYENCOURT;49.35733801;3.841329309
02366;HANNAPES;49.97711581;3.614426422
02367;HAPPENCOURT;49.78259056;3.183128633
02368;HARAMONT;49.2872759;3.031489771
02369;HARCIGNY;49.80256362;3.982836476
02370;HARGICOURT;49.96644929;3.190555104
02371;HARLY;49.84070518;3.334847242
02372;HARTENNES ET TAUX;49.27895345;3.357632876
02373;HARY;49.79738865;3.919274037
02374;LEHAUCOURT;49.91176068;3.276752354
02375;HAUTEVESNES;49.10884694;3.235678028
02376;HAUTEVILLE;49.88849812;3.523693406
02377;HAUTION;49.87211285;3.827198882
02378;LA HERIE;49.88382699;4.043606571
02379;LE HERIE LA VIEVILLE;49.82226975;3.653763247
02380;HINACOURT;49.74599565;3.294225664
02381;HIRSON;49.94264586;4.104837328
02382;HOLNON;49.86125569;3.200853259
02383;HOMBLIERES;49.85775431;3.37495128
02384;HOURY;49.78617806;3.848064161
02385;HOUSSET;49.796165;3.695392624
02386;IRON;49.95043095;3.665297895
02387;ITANCOURT;49.80344289;3.349427525
02388;IVIERS;49.78588639;4.135529026
02389;JAULGONNE;49.0895237;3.533596019
02390;JEANCOURT;49.92885627;3.147788053
02391;JEANTES;49.81272763;4.067155029
02392;JONCOURT;49.96014878;3.304072727
02393;JOUAIGNES;49.29284188;3.528186284
02395;JUMENCOURT;49.51229502;3.349397924
02396;JUMIGNY;49.40838346;3.725246693
02397;JUSSY;49.71720509;3.236117328
02398;JUVIGNY;49.44857677;3.315337811
02399;JUVINCOURT ET DAMARY;49.44688534;3.891471983
02400;LAFFAUX;49.44947709;3.429956932
02401;LAIGNY;49.86314664;3.861336265
02402;LANCHY;49.82921052;3.074154281
02403;LANDIFAY ET BERTAIGNEMONT;49.8255554;3.6039999
02404;LANDOUZY LA COUR;49.84414158;3.993582864
02405;LANDOUZY LA VILLE;49.85628902;4.050455066
02406;LANDRICOURT;49.50542035;3.36950507
02407;LANISCOURT;49.54691187;3.534067474
02408;LAON;49.56797249;3.620895619
02409;LAPPION;49.58980153;3.964579673
02410;LARGNY SUR AUTOMNE;49.26107484;3.054111231
02411;LATILLY;49.15388631;3.312184689
02412;LAUNOY;49.26299841;3.405437431
02413;LAVAL EN LAONNOIS;49.50299051;3.587582422
02414;LAVAQUERESSE;49.94653876;3.716642019
02415;LAVERSINE;49.35287189;3.154596515
02416;LEME;49.84392623;3.757671799
02417;LEMPIRE;49.99534295;3.174015035
02418;LERZY;49.94992585;3.881350931
02419;LESCHELLE;49.96057092;3.777407097
02420;LESDINS;49.90436322;3.314621179
02421;LESGES;49.30982839;3.500347679
02422;LESQUIELLES ST GERMAIN;49.93168707;3.628086443
02423;LEUILLY SOUS COUCY;49.4734455;3.352882054
02424;LEURY;49.42695299;3.341309222
02425;LEUZE;49.8578216;4.169638454
02426;LEVERGIES;49.93453807;3.311855792
02427;LHUYS;49.2728528;3.542306353
02428;LICY CLIGNON;49.10212332;3.265349008
02429;LIERVAL;49.48748675;3.622276918
02430;LIESSE NOTRE DAME;49.61085441;3.817117868
02431;LIEZ;49.69235099;3.30017369
02432;LIME;49.32349405;3.555395202
02433;LISLET;49.67572651;4.020842957
02434;LIZY;49.51195054;3.479416136
02435;LOGNY LES AUBENTON;49.8330144;4.220128093
02438;LONGPONT;49.28433624;3.220693606
02439;LES SEPTVALLONS;49.36033559;3.655678444
02440;LOR;49.52966687;4.054538844
02441;LOUATRE;49.25279471;3.241536299
02442;LOUPEIGNE;49.2411072;3.525107382
02443;LUCY LE BOCAGE;49.05496128;3.276167046
02444;LUGNY;49.7822813;3.812195398
02445;LUZOIR;49.9271349;3.960250903
02446;LY FONTAINE;49.73203311;3.310993779
02447;MAAST ET VIOLAINE;49.29317405;3.456949085
02448;MACHECOURT;49.65169662;3.837659958
02449;MACOGNY;49.15904291;3.217847086
02450;MACQUIGNY;49.87323875;3.570704896
02451;MAGNY LA FOSSE;49.9371259;3.276540319
02452;MAISSEMY;49.89294437;3.189037184
02453;MAIZY;49.3772599;3.716165261
02454;LA MALMAISON;49.51651788;4.000487179
02455;MALZY;49.92129703;3.730000599
02456;MANICAMP;49.56506542;3.1796264
02457;MARCHAIS;49.58507076;3.821501486
02458;DHUYS ET MORIN EN BRIE;48.89357862;3.492681213
02459;MARCY;49.85358983;3.411355322
02460;MARCY SOUS MARLE;49.74574952;3.734538811
02461;MAREST DAMPCOURT;49.59443854;3.146271247
02462;MAREUIL EN DOLE;49.24245528;3.561143267
02463;MARFONTAINE;49.80804691;3.763926882
02464;MARGIVAL;49.43271903;3.405729773
02465;MARIGNY EN ORXOIS;49.05263862;3.222810017
02466;MARIZY STE GENEVIEVE;49.18254779;3.198142476
02467;MARIZY ST MARD;49.18226931;3.227991147
02468;MARLE;49.74513935;3.76520545
02469;MARLY GOMONT;49.89137378;3.784987191
02470;MARTIGNY;49.86658225;4.134430522
02471;MARTIGNY COURPIERRE;49.4900405;3.686707755
02472;MAUREGNY EN HAYE;49.54062309;3.797628343
02473;MAYOT;49.70901173;3.398047661
02474;MENNESSIS;49.69183859;3.275433132
02475;MENNEVILLE;49.43032335;4.005557472
02476;MENNEVRET;49.99197046;3.558841334
02477;MERCIN ET VAUX;49.37056275;3.270701406
02478;MERLIEUX ET FOUQUEROLLES;49.51371722;3.499329832
02480;MESBRECOURT RICHECOURT;49.71038567;3.537397331
02481;MESNIL ST LAURENT;49.82901886;3.364540126
02482;MEURIVAL;49.35676987;3.759061677
02483;MEZIERES SUR OISE;49.79189999;3.387408337
02484;MEZY MOULINS;49.06300749;3.512278276
02485;MISSY AUX BOIS;49.33494073;3.246629706
02486;MISSY LES PIERREPONT;49.62793549;3.784195407
02487;MISSY SUR AISNE;49.38558984;3.438296727
02488;MOLAIN;50.03359227;3.529856582
02489;MOLINCHART;49.56248029;3.539796415
02490;MONAMPTEUIL;49.47600845;3.573601768
02491;MONCEAU LE NEUF ET FAUCOUZY;49.78457928;3.631108609
02492;MONCEAU LES LEUPS;49.66177893;3.485491332
02493;MONCEAU LE WAAST;49.62174355;3.716566686
02494;MONCEAU SUR OISE;49.90977327;3.699474326
02495;MONDREPUIS;49.96374413;4.051281135
02496;MONNES;49.14583588;3.228618207
02497;MONS EN LAONNOIS;49.53794518;3.55478458
02498;MONTAIGU;49.55313288;3.844397793
02499;MONTBAVIN;49.52953766;3.513197898
02500;MONTBREHAIN;49.96424496;3.356091474
02501;MONTCHALONS;49.51319174;3.727189658
02502;MONTCORNET;49.68901293;4.029150612
02503;MONT D ORIGNY;49.85149975;3.526735684
02504;MONTESCOURT LIZEROLLES;49.73603962;3.261889234
02505;MONTFAUCON;48.94666948;3.431923988
02506;MONTGOBERT;49.28962664;3.174041291
02507;MONTGRU ST HILAIRE;49.1768851;3.327222099
02508;MONTHENAULT;49.48927435;3.655924044
02509;MONTHIERS;49.10859872;3.294377767
02510;MONTHUREL;49.02753108;3.551873968
02511;MONTIGNY EN ARROUAISE;49.91200676;3.483066742
02512;MONTIGNY L ALLIER;49.12214185;3.107443728
02513;MONTIGNY LE FRANC;49.68747882;3.918398239
02514;MONTIGNY LENGRAIN;49.37269005;3.0992463
02515;MONTIGNY LES CONDE;48.98300555;3.566355462
02516;MONTIGNY SOUS MARLE;49.74110909;3.803979476
02517;MONTIGNY SUR CRECY;49.71492486;3.58368024
02518;MONTLEVON;48.96270055;3.51543798
02519;MONTLOUE;49.6682396;4.062758256
02520;MONT NOTRE DAME;49.29214677;3.582166171
02521;MONTREUIL AUX LIONS;49.02646071;3.194544387
02522;MONT ST JEAN;49.79321968;4.21125668
02523;MONT ST MARTIN;49.27479674;3.64275043
02524;MONT ST PERE;49.08169809;3.477154492
02525;MORCOURT;49.87595954;3.334002061
02526;MORGNY EN THIERACHE;49.75449474;4.076313924
02527;MORSAIN;49.46168076;3.191224056
02528;MORTEFONTAINE;49.33627682;3.080534795
02529;MORTIERS;49.69345083;3.664118416
02530;MOULINS;49.41984713;3.67884923
02531;MOUSSY VERNEUIL;49.41268153;3.63718133
02532;MOY DE L AISNE;49.75027496;3.351005532
02533;MURET ET CROUTTES;49.2781418;3.434647421
02534;MUSCOURT;49.35957957;3.743502392
02535;NAMPCELLES LA COUR;49.77657561;4.002099105
02536;NAMPTEUIL SOUS MURET;49.3051404;3.433980035
02537;NANTEUIL LA FOSSE;49.43380108;3.448000414
02538;NANTEUIL NOTRE DAME;49.19074217;3.41207163
02539;NAUROY;49.95081547;3.25861981
02540;NESLES LA MONTAGNE;48.99978373;3.445878928
02541;NEUFCHATEL SUR AISNE;49.43672968;4.023647127
02542;NEUFLIEUX;49.61637882;3.159968495
02543;NEUILLY ST FRONT;49.16263667;3.264362699
02544;NEUVE MAISON;49.92864298;4.040867303
02545;LA NEUVILLE BOSMONT;49.71450397;3.83367275
02546;LA NEUVILLE EN BEINE;49.67622985;3.156003624
02547;LA NEUVILLE HOUSSET;49.78813794;3.731716273
02548;LA NEUVILLE LES DORENGT;49.98306435;3.685659262
02549;NEUVILLE ST AMAND;49.82064771;3.333609917
02550;NEUVILLE SUR AILETTE;49.46951414;3.698199464
02551;NEUVILLE SUR MARGIVAL;49.45487298;3.398665882
02552;NEUVILLETTE;49.85540022;3.468312986
02553;NIZY LE COMTE;49.57436185;4.030648182
02554;NOGENTEL;49.01407586;3.403404042
02555;NOGENT L ARTAUD;48.94262222;3.332802902
02556;NOIRCOURT;49.66916487;4.094338096
02557;NOROY SUR OURCQ;49.20418244;3.206985657
02558;LE NOUVION EN THIERACHE;50.00868672;3.809292882
02559;NOUVION ET CATILLON;49.70756674;3.493597293
02560;NOUVION LE COMTE;49.70798308;3.460848689
02561;NOUVION LE VINEUX;49.50927633;3.605351266
02562;NOUVRON VINGRE;49.4333492;3.188031798
02563;NOYALES;49.90825595;3.538485655
02564;NOYANT ET ACONIN;49.33196207;3.334163038
02565;OEUILLY;49.39288569;3.682227413
02566;OGNES;49.61368647;3.191423729
02567;OHIS;49.91843072;4.011709121
02568;OIGNY EN VALOIS;49.2137238;3.130272862
02569;OISY;50.02290893;3.652738937
02570;OLLEZY;49.72999654;3.146072617
02571;OMISSY;49.88042672;3.297880367
02572;ORAINVILLE;49.37596798;4.015658565
02573;ORGEVAL;49.50411408;3.703370165
02574;ORIGNY EN THIERACHE;49.88619046;4.011011498
02575;ORIGNY STE BENOITE;49.82685027;3.529093247
02576;OSLY COURTIL;49.39953013;3.237365116
02577;OSTEL;49.4299693;3.565388712
02578;OULCHES LA VALLEE FOULON;49.4311312;3.739662909
02579;OULCHY LA VILLE;49.20985038;3.340625207
02580;OULCHY LE CHATEAU;49.20707018;3.382024138
02581;PAARS;49.33027793;3.60267922
02582;PAISSY;49.4263467;3.70149892
02583;PANCY COURTECON;49.46068859;3.649877952
02584;PAPLEUX;50.01691677;3.880237813
02585;PARCY ET TIGNY;49.27037044;3.329067097
02586;PARFONDEVAL;49.74435737;4.161452853
02587;PARFONDRU;49.53852134;3.703519153
02588;PARGNAN;49.39423915;3.703089409
02589;PARGNY FILAIN;49.46290557;3.539291087
02590;PARGNY LA DHUYS;48.95455096;3.563573706
02591;PARGNY LES BOIS;49.73230727;3.617883305
02592;PARPEVILLE;49.7943758;3.564228354
02593;PASLY;49.40228001;3.29799528
02594;PASSY EN VALOIS;49.16216183;3.184188816
02595;PASSY SUR MARNE;49.06633778;3.574388083
02596;PAVANT;48.95289246;3.283903829
02598;PERNANT;49.37565221;3.23031459
02599;PIERREMANDE;49.56655041;3.258367773
02600;PIERREPONT;49.64827846;3.787775467
02601;PIGNICOURT;49.4091911;4.030059615
02602;PINON;49.48848035;3.46156583
02604;PITHON;49.75623652;3.104220939
02605;PLEINE SELVE;49.79658834;3.526042564
02606;LE PLESSIER HULEU;49.23887528;3.348142661
02607;PLOISY;49.33094124;3.274566777
02608;PLOMION;49.81888166;4.019995977
02609;PLOYART ET VAURSEINE;49.4932537;3.740142529
02610;POMMIERS;49.39218738;3.278849372
02612;PONT ARCY;49.39184603;3.620038362
02613;PONTAVERT;49.41761982;3.820518154
02614;PONTRU;49.92159949;3.20120192
02615;PONTRUET;49.91485062;3.229473803
02616;PONT ST MARD;49.49397915;3.279340938
02617;POUILLY SUR SERRE;49.67786158;3.585593083
02618;PREMONT;50.01430675;3.39725258
02619;PREMONTRE;49.54935801;3.417763836
02620;PRESLES ET BOVES;49.39007268;3.5401398
02621;PRESLES ET THIERNY;49.51446036;3.624833616
02622;PRIEZ;49.13061975;3.262807176
02623;PRISCES;49.77216883;3.862741469
02624;PROISY;49.89061725;3.752411209
02625;PROIX;49.90221619;3.573468626
02626;PROUVAIS;49.4760907;3.972153499
02627;PROVISEUX ET PLESNOY;49.47772248;4.015878431
02628;PUISEUX EN RETZ;49.29258614;3.134488796
02629;PUISIEUX ET CLANLIEU;49.84724443;3.663676637
02631;QUIERZY;49.56410904;3.146137959
02632;QUINCY BASSE;49.5091437;3.384653642
02633;QUINCY SOUS LE MONT;49.30823239;3.559064219
02634;RAILLIMONT;49.70175932;4.15934738
02635;RAMICOURT;49.95796847;3.33105687
02636;REGNY;49.83430703;3.420614001
02637;REMAUCOURT;49.89543506;3.349480341
02638;REMIES;49.67936798;3.524780643
02639;REMIGNY;49.71416257;3.29518707
02640;RENANSART;49.73409314;3.453385132
02641;RENNEVAL;49.7391714;4.036741701
02642;RESIGNY;49.74138607;4.210002714
02643;RESSONS LE LONG;49.38817795;3.141175529
02644;RETHEUIL;49.31890911;3.00378065
02645;REUILLY SAUVIGNY;49.05060241;3.564487713
02647;RIBEAUVILLE;50.03669912;3.587544962
02648;RIBEMONT;49.78854366;3.47018526
02649;ROCOURT ST MARTIN;49.14538728;3.389140129
02650;ROCQUIGNY;50.0193342;3.973422509
02651;ROGECOURT;49.64929199;3.415500744
02652;ROGNY;49.76671298;3.821046728
02653;ROMENY SUR MARNE;48.98527212;3.334420907
02654;ROMERY;49.8882845;3.732666278
02655;RONCHERES;49.13983582;3.602451695
02656;ROUCY;49.37458782;3.820245021
02657;ROUGERIES;49.80560459;3.786947873
02658;ROUPY;49.8120572;3.181958965
02659;ROUVROY;49.85794471;3.332986812
02660;ROUVROY SUR SERRE;49.71536709;4.175977981
02661;ROYAUCOURT ET CHAILVET;49.51196719;3.538212061
02662;ROZET ST ALBIN;49.19821807;3.297387605
02663;ROZIERES SUR CRISE;49.32274435;3.371015928
02664;ROZOY BELLEVALLE;48.92446226;3.450036037
02665;GRAND ROZOY;49.24231098;3.381473601
02666;ROZOY SUR SERRE;49.70644786;4.131340109
02667;SACONIN ET BREUIL;49.35069024;3.246721463
02668;SAINS RICHAUMONT;49.82760687;3.704909269
02670;ST ALGIS;49.89443303;3.825464475
02671;ST AUBIN;49.50995403;3.188375801
02672;ST BANDRY;49.36389949;3.149490098
02673;ST CHRISTOPHE A BERRY;49.42904992;3.129494727
02674;ST CLEMENT;49.77527996;4.072889012
02675;STE CROIX;49.48005386;3.781296826
02676;ST ERME OUTRE ET RAMECOURT;49.51828337;3.863864068
02677;ST EUGENE;49.01554508;3.517213314
02678;STE GENEVIEVE;49.72470396;4.073681964
02679;ST GENGOULPH;49.11894991;3.21526676
02680;ST GOBAIN;49.59538872;3.394111437
02681;ST GOBERT;49.8037606;3.83219152
02682;ST MARD;49.38133386;3.58902035
02683;ST MARTIN RIVIERE;50.04400833;3.554863344
02684;ST MICHEL;49.92597007;4.152882294
02685;ST NICOLAS AUX BOIS;49.59703023;3.438980034
02686;ST PAUL AUX BOIS;49.54431212;3.202604372
02687;ST PIERRE AIGLE;49.31216217;3.196026492
02688;ST PIERRE LES FRANQUEVILLE;49.8245281;3.814061218
02689;ST PIERREMONT;49.7138801;3.876123534
02690;STE PREUVE;49.61730375;3.910983243
02691;ST QUENTIN;49.84723363;3.277694995
02693;ST REMY BLANZY;49.24575836;3.307737259
02694;ST SIMON;49.74588776;3.182604125
02695;ST THIBAUT;49.28914051;3.616503271
02696;ST THOMAS;49.50141004;3.819253785
02697;SAMOUSSY;49.58687066;3.743290945
02698;SANCY LES CHEMINOTS;49.43938068;3.476495523
02699;SAPONAY;49.21438315;3.484379854
02701;SAULCHERY;48.97564055;3.312608505
02702;SAVY;49.83436469;3.19764191
02703;SEBONCOURT;49.96260664;3.494259982
02704;SELENS;49.4943706;3.205860437
02705;LA SELVE;49.56987867;3.995248677
02706;SEPTMONTS;49.33845978;3.362102766
02707;SEPTVAUX;49.56978809;3.386795795
02708;SEQUEHART;49.93202605;3.340965192
02709;SERAIN;50.02469128;3.363043492
02710;SERAUCOURT LE GRAND;49.78051924;3.218297493
02711;SERCHES;49.33206641;3.449514951
02712;SERGY;49.18281787;3.570922156
02713;SERINGES ET NESLES;49.21165376;3.558850164
02714;SERMOISE;49.37247539;3.446971806
02715;SERVAL;49.35206998;3.682701842
02716;SERVAIS;49.61940832;3.341973258
02717;SERY LES MEZIERES;49.76472538;3.423213149
02718;SILLY LA POTERIE;49.19598988;3.150102762
02719;SINCENY;49.59109381;3.268770029
02720;SISSONNE;49.56396485;3.920321396
02721;SISSY;49.81065552;3.420846476
02722;SOISSONS;49.3791743;3.324717585
02723;SOIZE;49.69778489;4.08583269
02724;SOMMELANS;49.135392;3.293023037
02725;SOMMERON;49.95696883;3.945732882
02726;SOMMETTE EAUCOURT;49.72741807;3.119478085
02727;SONS ET RONCHERES;49.7689464;3.667617825
02728;SORBAIS;49.91376145;3.883024825
02729;SOUCY;49.32097502;3.123249091
02730;SOUPIR;49.41067848;3.599897368
02731;LE SOURD;49.86569563;3.752080125
02732;SURFONTAINE;49.74714211;3.479793151
02733;SUZY;49.55645104;3.460918969
02734;TAILLEFONTAINE;49.30993281;3.049625391
02735;TANNIERES;49.28733709;3.550408929
02736;TARTIERS;49.44008116;3.231565563
02737;TAVAUX ET PONTSERICOURT;49.72964463;3.919051918
02738;TERGNIER;49.65726461;3.299240775
02739;TERNY SORNY;49.44720966;3.369427912
02740;THENAILLES;49.81495767;3.952324795
02741;THENELLES;49.83149481;3.458940757
02742;THIERNU;49.76495157;3.779875358
02743;LE THUEL;49.6413106;4.089030915
02744;TORCY EN VALOIS;49.08286381;3.273588396
02745;TOULIS ET ATTENCOURT;49.69702605;3.750528834
02746;TRAVECY;49.68582172;3.344818459
02747;TREFCON;49.85908237;3.088646473
02748;TRELOU SUR MARNE;49.09167738;3.601579069
02749;TROESNES;49.19814846;3.176827402
02750;TROSLY LOIRE;49.51757948;3.231677175
02751;TRUCY;49.47214982;3.610923183
02752;TUGNY ET PONT;49.7704033;3.160725976
02753;TUPIGNY;49.97056084;3.593996225
02754;UGNY LE GAY;49.66100453;3.156632134
02755;URCEL;49.49404378;3.557132339
02756;URVILLERS;49.78975079;3.316299669
02757;VADENCOURT;49.92297716;3.573861188
02758;VAILLY SUR AISNE;49.41086233;3.520120598
02759;LA VALLEE AU BLE;49.85717251;3.794382858
02760;LA VALLEE MULATRE;50.02557087;3.560633299
02761;VARISCOURT;49.41488919;3.980662823
02762;VASSENS;49.47546699;3.156407614
02763;VASSENY;49.35562753;3.489102492
02764;VASSOGNE;49.42004434;3.729791911
02765;VAUCELLES ET BEFFECOURT;49.52069;3.558774607
02766;VAUDESSON;49.47500017;3.486959755
02767;VAUXREZIS;49.42050775;3.277093352
02768;VAUXAILLON;49.47706511;3.408237516
02769;VAUX ANDIGNY;50.01114725;3.522954002
02770;VAUXBUIN;49.35728334;3.295493919
02772;VAUX EN VERMANDOIS;49.82386684;3.135789874
02773;VAUXTIN;49.34546731;3.601658842
02774;VENDELLES;49.90783139;3.138169357
02775;VENDEUIL;49.71987081;3.344916901
02776;VENDHUILE;50.01202546;3.208886141
02777;VENDIERES;48.8731711;3.443017877
02778;VENDRESSE BEAULNE;49.43171329;3.656902437
02779;VENEROLLES;49.9903433;3.630086526
02780;VENIZEL;49.36764258;3.392485432
02781;VERDILLY;49.07448625;3.421899052
02782;LE VERGUIER;49.92314019;3.169363854
02783;GRAND VERLY;49.94341999;3.581382825
02784;PETIT VERLY;49.95814936;3.562751897
02785;VERMAND;49.88390985;3.151465157
02786;VERNEUIL SOUS COUCY;49.54511461;3.318900358
02787;VERNEUIL SUR SERRE;49.643603;3.679434014
02788;VERSIGNY;49.65813673;3.442709663
02789;VERVINS;49.83517987;3.925226028
02790;VESLES ET CAUMONT;49.67509327;3.789508791
02791;VESLUD;49.53874901;3.730676635
02792;VEUILLY LA POTERIE;49.08329763;3.218865023
02793;VEZAPONIN;49.46674982;3.222980945
02794;VEZILLY;49.18744436;3.682741494
02795;VIC SUR AISNE;49.41074763;3.109125505
02796;VICHEL NANTEUIL;49.18224863;3.298899357
02797;VIEL ARCY;49.37893453;3.625894436
02798;VIELS MAISONS;48.90704257;3.395718928
02799;VIERZY;49.28685705;3.277594907
02800;VIFFORT;48.95761656;3.469725944
02801;VIGNEUX HOCQUET;49.74403937;3.994891656
02802;LA VILLE AUX BOIS LES DIZY;49.6626573;3.981520837
02803;LA VILLE AUX BOIS LES PONTAVERT;49.4265973;3.851082628
02804;VILLEMONTOIRE;49.30001996;3.321896722
02805;VILLENEUVE ST GERMAIN;49.37890136;3.361758158
02806;VILLENEUVE SUR FERE;49.1706937;3.47593843
02807;VILLEQUIER AUMONT;49.66062401;3.198342442
02808;VILLERET;49.9494418;3.187498927
02809;VILLERS AGRON AIGUIZY;49.16320725;3.716362446
02810;VILLERS COTTERETS;49.23920006;3.096121911
02812;VILLERS HELON;49.26493555;3.267861347
02813;VILLERS LE SEC;49.77114567;3.504906967
02814;VILLERS LES GUISE;49.9255662;3.682416646
02815;VILLERS ST CHRISTOPHE;49.77969142;3.090998975
02816;VILLERS SUR FERE;49.17151502;3.531526836
02817;VILLE SAVOYE;49.29298075;3.637623618
02818;VILLIERS ST DENIS;48.9977206;3.261040641
02819;VINCY REUIL ET MAGNY;49.71402953;4.04512128
02820;VIRY NOUREUIL;49.63854564;3.24823592
02821;VIVAISE;49.62286885;3.564319433
02822;VIVIERES;49.30518854;3.091960759
02823;VOHARIES;49.78714812;3.792038682
02824;VORGES;49.5175796;3.65105369
02826;VOULPAIX;49.83875074;3.832662386
02827;VOYENNE;49.71587933;3.73841251
02828;VREGNY;49.41406199;3.419735636
02829;VUILLERY;49.43068319;3.387945243
02830;WASSIGNY;50.01764299;3.599447315
02831;WATIGNY;49.91636394;4.200403178
02832;WIEGE FATY;49.88279864;3.713424017
02833;WIMY;49.94805357;3.997358851
02834;WISSIGNICOURT;49.53018962;3.441020737
03001;ABREST;46.09557667;3.450524822
03002;AGONGES;46.6180197;3.148842785
03003;AINAY LE CHATEAU;46.71556785;2.720856135
03004;ANDELAROCHE;46.25011531;3.746131928
03005;ARCHIGNAT;46.36708646;2.410012104
03006;ARFEUILLES;46.14315151;3.743291106
03007;ARPHEUILLES ST PRIEST;46.22694599;2.664859322
03008;ARRONNES;46.05208546;3.575275358
03009;AUBIGNY;46.6733055;3.16204245
03010;AUDES;46.46077074;2.559047863
03011;AUROUER;46.68306511;3.304968438
03012;AUTRY ISSARDS;46.54457555;3.122736292
03013;AVERMES;46.5983892;3.31863294
03014;AVRILLY;46.33213777;3.966621619
03015;BAGNEUX;46.64552685;3.20422375
03016;BARBERIER;46.21996744;3.249307164
03017;BARRAIS BUSSOLLES;46.28374085;3.697660132
03018;BAYET;46.25752944;3.276827441
03019;BEAULON;46.58744119;3.668999848
03020;BEAUNE D ALLIER;46.27281774;2.890913718
03021;BEGUES;46.12296143;3.142735829
03022;BELLENAVES;46.20551323;3.066059901
03023;BELLERIVE SUR ALLIER;46.12149444;3.397190621
03024;BERT;46.32760097;3.701767885
03025;BESSAY SUR ALLIER;46.45075529;3.367523385
03026;BESSON;46.48085888;3.254776169
03027;BEZENET;46.33231014;2.849393075
03028;BILLEZOIS;46.20948267;3.576882653
03029;BILLY;46.2315364;3.439941287
03030;BIOZAT;46.08127138;3.288685186
03031;BIZENEUILLE;46.4015746;2.730716582
03032;BLOMARD;46.28833718;2.962675668
03033;BOST;46.18340846;3.505823002
03034;BOUCE;46.32036977;3.492504825
03035;LE BOUCHAUD;46.30730558;3.907053467
03036;BOURBON L ARCHAMBAULT;46.58368191;3.05141626
03037;BRAIZE;46.65863623;2.654274845
03038;BRANSAT;46.32912488;3.217070919
03039;BRESNAY;46.43356924;3.248993305
03040;BRESSOLLES;46.52806431;3.295748661
03041;LE BRETHON;46.58414573;2.715256627
03042;LE BREUIL;46.17677846;3.66869091
03043;BROUT VERNET;46.19617274;3.288516515
03044;BRUGHEAS;46.07283471;3.366059925
03045;BUSSET;46.05689127;3.515331279
03046;BUXIERES LES MINES;46.46983413;2.954930902
03047;LA CELLE;46.22788446;2.778941186
03048;CERILLY;46.62651018;2.809018572
03049;CESSET;46.29938475;3.199089443
03050;LA CHABANNE;46.02444748;3.751555299
03051;CHAMBERAT;46.41396656;2.425521329
03052;CHAMBLET;46.32838792;2.713314463
03053;CHANTELLE;46.23653558;3.160467093
03054;CHAPEAU;46.49222087;3.515487796
03055;LA CHAPELAUDE;46.42763658;2.504335856
03056;LA CHAPELLE;46.08893415;3.587771209
03057;LA CHAPELLE AUX CHASSES;46.65982852;3.530217032
03058;CHAPPES;46.38289617;2.944123589
03059;CHAREIL CINTRAT;46.26625837;3.229793531
03060;CHARMEIL;46.15988152;3.393346707
03061;CHARMES;46.08295715;3.246395558
03062;CHARROUX;46.18232861;3.164150342
03063;CHASSENARD;46.44158747;3.973298626
03064;CHATEAU SUR ALLIER;46.78170928;2.98716115
03065;CHATEL DE NEUVRE;46.41604499;3.298225209
03066;CHATEL MONTAGNE;46.10007203;3.716571684
03067;CHATELPERRON;46.39686587;3.633137609
03068;CHATELUS;46.19803828;3.725111111
03069;CHATILLON;46.46153776;3.128074655
03070;CHAVENON;46.42199393;2.951707413
03071;CHAVROCHES;46.35349546;3.596848402
03072;CHAZEMAIS;46.48717672;2.51910449
03073;CHEMILLY;46.47834245;3.312679061
03074;CHEVAGNES;46.60820386;3.564032971
03075;CHEZELLE;46.21297576;3.111548209
03076;CHEZY;46.61247575;3.459348048
03077;CHIRAT L EGLISE;46.24600093;3.032516106
03078;CHOUVIGNY;46.12573804;3.004924642
03079;CINDRE;46.32309303;3.551102897
03080;COGNAT LYONNE;46.10740955;3.29764762
03081;COLOMBIER;46.26698295;2.793713164
03082;COMMENTRY;46.27874669;2.749167347
03083;CONTIGNY;46.34637111;3.31483781
03084;COSNE D ALLIER;46.48296281;2.823230063
03085;COULANDON;46.55465355;3.245413873
03086;COULANGES;46.47510965;3.863306538
03087;COULEUVRE;46.67406832;2.896855344
03088;COURCAIS;46.46396218;2.449091728
03089;COUTANSOUZE;46.20527658;3.007556519
03090;COUZON;46.64437509;3.113474166
03091;CRECHY;46.26968856;3.423879844
03092;CRESSANGES;46.44430927;3.170724896
03093;CREUZIER LE NEUF;46.17812347;3.46274148
03094;CREUZIER LE VIEUX;46.16059887;3.434350897
03095;CUSSET;46.13777383;3.482967085
03096;DENEUILLE LES CHANTELLE;46.25293218;3.145855983
03097;DENEUILLE LES MINES;46.37829245;2.775575061
03098;DESERTINES;46.35692369;2.627356019
03099;DEUX CHAISES;46.37490692;3.040591983
03100;DIOU;46.52262363;3.73673453
03101;DOMERAT;46.36815102;2.543462196
03102;DOMPIERRE SUR BESBRE;46.53058953;3.67644077
03103;LE DONJON;46.34497181;3.79994568
03104;DOYET;46.34339463;2.79161075
03105;DROITURIER;46.22674685;3.70488869
03106;DURDAT LAREQUILLE;46.25400406;2.696864392
03107;EBREUIL;46.11765436;3.073631212
03108;ECHASSIERES;46.1956641;2.945969168
03109;ESCUROLLES;46.14182851;3.26795918
03110;ESPINASSE VOZELLE;46.1292798;3.335017621
03111;ESTIVAREILLES;46.42509698;2.624774356
03112;ETROUSSAT;46.22029765;3.221021951
03113;FERRIERES SUR SICHON;46.02000508;3.648500646
03114;LA FERTE HAUTERIVE;46.39615935;3.335544952
03115;FLEURIEL;46.28702924;3.16169451
03116;FOURILLES;46.24385839;3.197840468
03117;FRANCHESSE;46.64365664;3.036620044
03118;GANNAT;46.09841921;3.177908236
03119;GANNAY SUR LOIRE;46.71790705;3.596346507
03120;GARNAT SUR ENGIEVRE;46.63481665;3.667974675
03121;GENNETINES;46.62963988;3.404983186
03122;GIPCY;46.51106734;3.051389392
03124;GOUISE;46.41071282;3.438464283
03125;LA GUILLERMIE;45.98132281;3.645291741
03126;HAUTERIVE;46.07730452;3.438684536
03127;HERISSON;46.51990774;2.710528899
03128;HURIEL;46.37709862;2.481983648
03129;HYDS;46.27320565;2.828014576
03130;ISLE ET BARDAIS;46.68204551;2.777018694
03131;ISSERPENT;46.15429552;3.618258769
03132;JALIGNY SUR BESBRE;46.37704978;3.590298385
03133;JENZAT;46.16011579;3.19738809
03134;LAFELINE;46.34462982;3.175486754
03135;LALIZOLLE;46.16463035;3.008255595
03136;LAMAIDS;46.30400917;2.438167626
03137;LANGY;46.27287743;3.461811533
03138;LAPALISSE;46.26484681;3.638384252
03139;LAPRUGNE;45.99371367;3.763080181
03140;LAVAULT STE ANNE;46.30860161;2.601603403
03141;LAVOINE;45.97417066;3.687335061
03142;LENAX;46.30397098;3.830670274
03143;LETELON;46.65635427;2.594956185
03144;LIERNOLLES;46.39862895;3.767997838
03145;LIGNEROLLES;46.28225317;2.566905308
03146;LIMOISE;46.68419665;3.054888878
03147;LODDES;46.29461681;3.76081552
03148;LORIGES;46.26591776;3.341880864
03149;LOUCHY MONTFAND;46.30758297;3.244919284
03150;LOUROUX BOURBONNAIS;46.53407875;2.838548276
03151;LOUROUX DE BEAUNE;46.29960421;2.859420621
03152;LOUROUX DE BOUBLE;46.22971979;2.973098545
03154;LUNEAU;46.3662876;3.952786366
03155;LURCY LEVIS;46.73509226;2.918003254
03156;LUSIGNY;46.57170451;3.489498981
03157;MAGNET;46.21729069;3.510603673
03158;HAUT BOCAGE;46.49286363;2.658523613
03159;MALICORNE;46.30726786;2.770276847
03160;MARCENAT;46.23717427;3.397032427
03161;MARCILLAT EN COMBRAILLE;46.17016244;2.634411184
03162;MARIGNY;46.57955768;3.209896485
03163;MARIOL;46.02527221;3.486520099
03164;LE MAYET D ECOLE;46.1649554;3.240845679
03165;LE MAYET DE MONTAGNE;46.06021817;3.655465709
03166;MAZERIER;46.13251444;3.181704829
03167;MAZIRAT;46.21850456;2.55398563
03168;MEAULNE;46.59592566;2.620221177
03169;MEILLARD;46.38814905;3.231689008
03170;MEILLERS;46.51326156;3.102671941
03171;MERCY;46.45113543;3.52416502
03172;MESPLES;46.42726212;2.364418671
03173;MOLINET;46.46422004;3.926271385
03174;MOLLES;46.11504136;3.556484952
03175;MONESTIER;46.26285256;3.10440007
03176;MONETAY SUR ALLIER;46.38101752;3.289325545
03177;MONETAY SUR LOIRE;46.43504683;3.82462613
03178;MONTAIGUET EN FOREZ;46.26742917;3.822135605
03179;MONTAIGU LE BLIN;46.29074373;3.516238394
03180;MONTBEUGNY;46.52820618;3.474229214
03181;MONTCOMBROUX LES MINES;46.36069345;3.728089571
03182;MONTEIGNET SUR L ANDELOT;46.11500077;3.248112838
03183;LE MONTET;46.40620289;3.054100025
03184;MONTILLY;46.61052856;3.240057456
03185;MONTLUCON;46.33858835;2.603904998
03186;MONTMARAULT;46.32018728;2.95237432
03187;MONTOLDRE;46.33757701;3.451024436
03188;MONTORD;46.28979248;3.239623216
03189;MONTVICQ;46.31567891;2.822231242
03190;MOULINS;46.56246411;3.326620402
03191;MURAT;46.41097629;2.904178053
03192;NADES;46.15425066;2.968618349
03193;NASSIGNY;46.49784349;2.594406521
03194;NAVES;46.17605328;3.11644372
03195;NERIS LES BAINS;46.29944202;2.675747854
03196;NEUILLY EN DONJON;46.34273635;3.885289635
03197;NEUILLY LE REAL;46.46671068;3.437215085
03198;NEURE;46.74481463;2.97978881
03200;NEUVY;46.57125183;3.282753386
03201;NIZEROLLES;46.10729666;3.644080396
03202;NOYANT D ALLIER;46.47967605;3.118783255
03203;PARAY LE FRESIL;46.65989703;3.603830707
03204;PARAY SOUS BRIAILLES;46.2903734;3.369809841
03205;PERIGNY;46.24666958;3.560397439
03206;LA PETITE MARCHE;46.18987569;2.561426162
03207;PIERREFITTE SUR LOIRE;46.5040403;3.810070647
03208;LE PIN;46.42221797;3.889586601
03209;POEZAT;46.07553254;3.227013794
03210;POUZY MESANGY;46.70498566;3.007180399
03211;PREMILHAT;46.30993098;2.547197292
03212;QUINSSAINES;46.30920239;2.494446255
03213;REUGNY;46.45840496;2.613288944
03214;ROCLES;46.44451461;3.036771991
03215;RONGERES;46.29761792;3.452009894
03216;RONNET;46.20154782;2.700874469
03217;ST ANGEL;46.35584981;2.684611765
03218;ST AUBIN LE MONIAL;46.53576571;3.001443984
03219;ST BONNET DE FOUR;46.31497942;2.904553426
03220;ST BONNET DE ROCHEFORT;46.15053098;3.140793794
03221;ST BONNET TRONCAIS;46.66976417;2.696133412
03222;ST CAPRAIS;46.54493335;2.739800952
03223;ST CHRISTOPHE;46.16631621;3.578008097
03224;ST CLEMENT;46.05775348;3.721917986
03225;ST DESIRE;46.50743978;2.44986212
03226;ST DIDIER EN DONJON;46.3830807;3.860980778
03227;ST DIDIER LA FORET;46.2294445;3.336254371
03228;ST ELOY D ALLIER;46.49679099;2.36296544
03229;ST ENNEMOND;46.68089916;3.404468077
03230;ST ETIENNE DE VICQ;46.17318041;3.536162521
03231;ST FARGEOL;46.13434243;2.63071732
03232;ST FELIX;46.22919341;3.47524604
03233;ST GENEST;46.26341493;2.603205337
03234;ST GERAND DE VAUX;46.38382498;3.407432562
03235;ST GERAND LE PUY;46.263764;3.511754516
03236;ST GERMAIN DES FOSSES;46.1959477;3.429977008
03237;ST GERMAIN DE SALLES;46.18710018;3.220539756
03238;ST HILAIRE;46.4866887;3.015433896
03239;ST LEGER SUR VOUZANCE;46.40920219;3.937255077
03240;ST LEON;46.41063889;3.687757211
03241;ST LEOPARDIN D AUGY;46.69795028;3.105513556
03242;ST LOUP;46.35496419;3.376018601
03243;ST MARCEL EN MURAT;46.32167089;3.00484403
03244;ST MARCEL EN MARCILLAT;46.15328045;2.580753811
03245;ST MARTIN DES LAIS;46.67426092;3.656618457
03246;ST MARTINIEN;46.33291893;2.442870813
03247;ST MENOUX;46.58239232;3.144940828
03248;ST NICOLAS DES BIEFS;46.06322456;3.794606122
03249;ST PALAIS;46.44032233;2.305685717
03250;ST PIERRE LAVAL;46.19545614;3.770270314
03251;ST PLAISIR;46.62438184;2.955870347
03252;ST PONT;46.1588138;3.298555325
03253;ST POURCAIN SUR BESBRE;46.48177729;3.649331421
03254;ST POURCAIN SUR SIOULE;46.30450943;3.305378271
03255;ST PRIEST D ANDELOT;46.07657189;3.154339298
03256;ST PRIEST EN MURAT;46.35568925;2.902618376
03257;ST PRIX;46.22522734;3.648940315
03258;ST REMY EN ROLLAT;46.19246353;3.38335991
03259;ST SAUVIER;46.39659439;2.331545849
03260;ST SORNIN;46.41169803;3.003561318
03261;STE THERENCE;46.24339061;2.572711619
03262;ST VICTOR;46.38827679;2.609413193
03263;ST VOIR;46.410067;3.506061252
03264;ST YORRE;46.06425757;3.467496657
03265;SALIGNY SUR ROUDON;46.46297125;3.751257231
03266;SANSSAT;46.25040857;3.467706867
03267;SAULCET;46.32943105;3.266949218
03268;SAULZET;46.13772429;3.221348773
03269;SAUVAGNY;46.43454487;2.79955609
03270;SAZERET;46.34687026;2.969761127
03271;SERBANNES;46.09891968;3.352457456
03272;SERVILLY;46.28025898;3.58979684
03273;SEUILLET;46.20456843;3.467878445
03274;SORBIER;46.36131856;3.657479307
03275;SOUVIGNY;46.52434404;3.189929602
03276;SUSSAT;46.1523532;3.055844115
03277;TARGET;46.28484071;3.047946322
03278;TAXAT SENAT;46.2077285;3.145785081
03279;TEILLET ARGENTY;46.26276917;2.516580039
03280;TERJAT;46.21446214;2.618791976
03281;LE THEIL;46.35638933;3.12547357
03282;THENEUILLE;46.58749056;2.879945459
03283;THIEL SUR ACOLIN;46.53110204;3.578237607
03284;THIONNE;46.41181045;3.573261477
03285;TORTEZAIS;46.44562526;2.873407214
03286;TOULON SUR ALLIER;46.51061605;3.377062658
03287;TREBAN;46.39936445;3.165417229
03288;TREIGNAT;46.34839053;2.352199187
03289;TRETEAU;46.36771044;3.519969707
03290;TREVOL;46.63705129;3.315891393
03291;TREZELLES;46.31953247;3.596714194
03292;TRONGET;46.41863339;3.088623656
03293;URCAY;46.63407484;2.61371571
03294;USSEL D ALLIER;46.21036265;3.18945634
03295;VALIGNAT;46.17440508;3.078393543
03296;VALIGNY;46.71562219;2.820391232
03297;VALLON EN SULLY;46.54013837;2.616748845
03298;VARENNES SUR ALLIER;46.31702566;3.400128286
03299;VARENNES SUR TECHE;46.31777384;3.637441729
03300;VAUMAS;46.44840827;3.624117648
03301;VAUX;46.42140021;2.574354925
03302;VEAUCE;46.17009289;3.05432608
03303;VENAS;46.47278022;2.76726504
03304;VENDAT;46.16181166;3.347270942
03305;VERNEIX;46.40805471;2.674621252
03306;LE VERNET;46.10675274;3.474921403
03307;VERNEUIL EN BOURBONNAIS;46.35406003;3.250578812
03308;VERNUSSE;46.26027328;2.971677418
03309;LE VEURDRE;46.74272768;3.0425977
03310;VICHY;46.13000514;3.424420812
03311;VICQ;46.14712741;3.095969542
03312;VIEURE;46.50011104;2.882222375
03313;LE VILHAIN;46.56190955;2.79303078
03314;VILLEBRET;46.27779868;2.632765192
03315;VILLEFRANCHE D ALLIER;46.39631104;2.841268959
03316;VILLENEUVE SUR ALLIER;46.67411502;3.25033675
03317;VIPLAIX;46.46181097;2.369754228
03318;VITRAY;46.61677572;2.676922612
03319;VOUSSAC;46.32568337;3.073364557
03320;YGRANDE;46.54971379;2.94199693
03321;YZEURE;46.56364562;3.379781601
04001;AIGLUN;44.06387446;6.138428453
04004;ALLEMAGNE EN PROVENCE;43.78879025;6.03091832
04005;ALLONS;43.9803885;6.590327442
04006;ALLOS;44.26149614;6.6267179
04007;ANGLES;43.94432931;6.552320635
04008;ANNOT;43.96200097;6.663958116
04009;ARCHAIL;44.11106534;6.330714112
04012;AUBENAS LES ALPES;43.93355842;5.67694694
04013;AUBIGNOSC;44.11824496;5.957344849
04016;AUTHON;44.24925455;6.15102271
04017;AUZET;44.30540016;6.311155924
04018;BANON;44.02694481;5.649647152
04019;BARCELONNETTE;44.37856142;6.652150897
04020;BARLES;44.27302802;6.253257439
04021;BARRAS;44.10065756;6.098502128
04022;BARREME;43.94628087;6.378115587
04023;BAYONS;44.32492773;6.172825378
04024;BEAUJEU;44.21859504;6.371198069
04025;BEAUVEZER;44.14397527;6.597727747
04026;BELLAFFAIRE;44.40439153;6.194203045
04027;BEVONS;44.17799648;5.878959287
04028;BEYNES;43.98349652;6.240256631
04030;BLIEUX;43.87462748;6.362796708
04031;BRAS D ASSE;43.92632572;6.126497725
04032;BRAUX;43.99303445;6.699411278
04033;LA BREOLE;44.44346621;6.289247504
04034;LA BRILLANNE;43.93190054;5.884218388
04035;BRUNET;43.88587854;6.032575363
04036;LE BRUSQUET;44.16816214;6.303473519
04037;LE CAIRE;44.37441635;6.068757742
04039;CASTELLANE;43.84498622;6.49029842
04040;LE CASTELLARD MELAN;44.2016432;6.131595213
04041;LE CASTELLET;43.91988849;5.979004953
04042;CASTELLET LES SAUSSES;44.04030386;6.734509005
04043;VAL DE CHALVAGNE;43.90463743;6.765785202
04045;CERESTE;43.85031617;5.589769262
04046;LE CHAFFAUT ST JURSON;44.02318043;6.140737987
04047;CHAMPTERCIER;44.09693513;6.144564514
04049;CHATEAU ARNOUX ST AUBAN;44.08547061;5.99239535
04050;CHATEAUFORT;44.27504612;6.029670115
04051;CHATEAUNEUF MIRAVAIL;44.15331521;5.717572625
04053;CHATEAUNEUF VAL ST DONAT;44.09545342;5.930546831
04054;CHATEAUREDON;44.02650875;6.224295079
04055;CHAUDON NORANTE;43.99191495;6.317368071
04057;CLAMENSANE;44.32826636;6.0785018
04058;CLARET;44.37381183;5.964676732
04059;CLUMANC;44.02209426;6.377643211
04061;COLMARS;44.17242728;6.661540614
04062;LA CONDAMINE CHATELARD;44.46276867;6.696291704
04063;CORBIERES;43.76069098;5.745904525
04065;CRUIS;44.0831627;5.838469491
04066;CURBANS;44.40834733;6.030050012
04067;CUREL;44.17660551;5.672674647
04068;DAUPHIN;43.89324344;5.776452248
04069;DEMANDOLX;43.8698631;6.574405925
04070;DIGNE LES BAINS;44.09087236;6.235903235
04072;DRAIX;44.12993915;6.371799776
04073;ENCHASTRAYES;44.36400854;6.710289807
04074;ENTRAGES;44.03793327;6.26880026
04075;ENTREPIERRES;44.19565372;6.022241242
04076;ENTREVAUX;43.9502625;6.802385437
04077;ENTREVENNES;43.93789727;6.033809031
04079;L ESCALE;44.08100586;6.034554945
04081;ESPARRON DE VERDON;43.74382503;5.988916392
04084;ESTOUBLON;43.94316861;6.194078211
04085;FAUCON DU CAIRE;44.39594639;6.103673887
04086;FAUCON DE BARCELONNETTE;44.41358267;6.67868076
04087;FONTIENNE;44.00686342;5.793825011
04088;FORCALQUIER;43.95990824;5.788282757
04090;LE FUGERET;44.01450008;6.665607471
04091;GANAGOBIE;44.00258621;5.908500761
04092;LA GARDE;43.8298617;6.571545242
04093;GIGORS;44.42399944;6.140973063
04094;GREOUX LES BAINS;43.76761028;5.864950462
04095;L HOSPITALET;44.10891876;5.706859256
04096;JAUSIERS;44.38761102;6.786023124
04097;LA JAVIE;44.19719902;6.321576075
04099;LAMBRUISSE;44.04483449;6.445388467
04101;LARDIERS;44.08507929;5.726916122
04102;LE LAUZET UBAYE;44.43291388;6.419425275
04104;LIMANS;43.98660499;5.723664258
04106;LURS;43.96983433;5.880494063
04107;MAJASTRES;43.89807803;6.283691346
04108;MALIJAI;44.03366605;6.050424374
04109;MALLEFOUGASSE AUGES;44.07599186;5.897796486
04110;MALLEMOISSON;44.0420072;6.118071472
04111;MANE;43.93889738;5.742342135
04112;MANOSQUE;43.83540408;5.791066542
04113;MARCOUX;44.12821924;6.280078859
04115;MEAILLES;44.04014597;6.645329053
04116;LES MEES;43.99447674;5.966017556
04118;MELVE;44.35636981;5.992911021
04120;VAL D ORONAYE;44.47306423;6.811147027
04121;MEZEL;43.99808634;6.178798923
04122;MIRABEAU;44.0562296;6.080159316
04123;MISON;44.26243298;5.865626788
04124;MONTAGNAC MONTPEZAT;43.76652507;6.094548059
04126;MONTCLAR;44.40161384;6.341128052
04127;MONTFORT;44.05917099;5.952860936
04128;MONTFURON;43.83158008;5.688593185
04129;MONTJUSTIN;43.84529309;5.650235603
04130;MONTLAUX;44.04079238;5.85016627
04132;MONTSALIER;44.02995258;5.595741738
04133;MORIEZ;43.96409295;6.462533459
04134;LA MOTTE DU CAIRE;44.34087057;6.030526693
04135;MOUSTIERS STE MARIE;43.83832786;6.228189096
04136;LA MURE ARGENS;44.01661078;6.531967018
04137;NIBLES;44.28925418;6.008726217
04138;NIOZELLES;43.93185681;5.847350079
04139;NOYERS SUR JABRON;44.16865235;5.80998244
04140;LES OMERGUES;44.15274548;5.589370589
04141;ONGLES;44.03142598;5.724808814
04142;OPPEDETTE;43.93066048;5.592743304
04143;ORAISON;43.91110603;5.924580116
04144;LA PALUD SUR VERDON;43.7966483;6.327088746
04145;PEIPIN;44.14130265;5.943714738
04148;PEYROULES;43.81691947;6.643101147
04149;PEYRUIS;44.03515352;5.928333557
04150;PIEGUT;44.45337861;6.131722579
04151;PIERRERUE;43.96233316;5.836018731
04152;PIERREVERT;43.80650506;5.722738217
04154;PONTIS;44.4956919;6.365237766
04155;PRADS HAUTE BLEONE;44.21343364;6.463769946
04156;PUIMICHEL;43.97916571;6.025386782
04157;PUIMOISSON;43.87081528;6.122002138
04158;QUINSON;43.70806249;6.022694923
04159;REDORTIERS;44.09812111;5.614145915
04160;REILLANNE;43.88613622;5.659354153
04161;MEOLANS REVEL;44.3714312;6.498464049
04162;REVEST DES BROUSSES;43.97548507;5.675012212
04163;REVEST DU BION;44.09409035;5.540509385
04164;REVEST ST MARTIN;44.01984828;5.822986213
04166;RIEZ;43.82845875;6.0823782
04167;LA ROBINE SUR GALABRE;44.19273299;6.230384357
04169;LA ROCHEGIRON;44.10941839;5.663813974
04170;LA ROCHETTE;43.91227603;6.880700589
04171;ROUGON;43.79665948;6.393181451
04172;ROUMOULES;43.82104161;6.148647033
04173;ST ANDRE LES ALPES;43.97133014;6.501497122
04174;ST BENOIT;43.96294141;6.723867046
04175;STE CROIX A LAUZE;43.9042071;5.615681705
04176;STE CROIX DU VERDON;43.76428215;6.151588824
04177;HAUTES DUYES;44.19490517;6.17423381
04178;ST ETIENNE LES ORGUES;44.06701498;5.780460528
04179;ST GENIEZ;44.23266689;6.062674027
04180;ST JACQUES;43.97691793;6.371285171
04181;ST JEANNET;43.97932202;6.118015528
04182;ST JULIEN D ASSE;43.92661539;6.07806455
04183;ST JULIEN DU VERDON;43.90976261;6.546059005
04184;ST JURS;43.89904742;6.19288089
04186;ST LAURENT DU VERDON;43.72161722;6.068595388
04187;ST LIONS;43.9786318;6.406277407
04188;ST MAIME;43.90064207;5.801542403
04189;ST MARTIN DE BROMES;43.77747687;5.962501751
04190;ST MARTIN LES EAUX;43.87197029;5.74137178
04191;ST MARTIN LES SEYNE;44.38272027;6.255553206
04192;ST MICHEL L OBSERVATOIRE;43.90987941;5.720043154
04193;ST PAUL SUR UBAYE;44.55889884;6.820787701
04194;ST PIERRE;43.90888894;6.921845911
04195;ST PONS;44.41727132;6.615074249
04197;STE TULLE;43.78304825;5.773023317
04198;ST VINCENT LES FORTS;44.43741627;6.368879607
04199;ST VINCENT SUR JABRON;44.16976591;5.747947653
04200;SALIGNAC;44.15716811;5.98824786
04201;SAUMANE;44.08128085;5.682146022
04202;SAUSSES;44.01227113;6.779369393
04203;SELONNET;44.37172108;6.2937933
04204;SENEZ;43.92249782;6.369033713
04205;SEYNE;44.33901082;6.384827968
04206;SIGONCE;44.00452276;5.856583156
04207;SIGOYER;44.32237115;5.961028163
04208;SIMIANE LA ROTONDE;43.98381282;5.562489946
04209;SISTERON;44.20019251;5.93083716
04210;SOLEILHAS;43.85997606;6.648607532
04211;SOURRIBES;44.15886648;6.044302048
04214;TARTONNE;44.07846638;6.383931007
04216;THEZE;44.32975324;5.925023101
04217;THOARD;44.1473006;6.124012983
04218;THORAME BASSE;44.10719292;6.489313254
04219;THORAME HAUTE;44.0855015;6.601287415
04220;LES THUILES;44.39035846;6.561355974
04222;TURRIERS;44.39158821;6.159182215
04224;UBRAYE;43.90704467;6.687184632
04226;UVERNET FOURS;44.31911321;6.670284434
04227;VACHERES;43.94674916;5.63529437
04228;VALAVOIRE;44.27950995;6.076157315
04229;VALBELLE;44.13712077;5.876276698
04230;VALENSOLE;43.83808449;5.941918472
04231;VALERNES;44.25155897;5.969547642
04233;VAUMEILH;44.2903077;5.956531218
04234;VENTEROL;44.44234601;6.087385014
04235;VERDACHES;44.26779907;6.343346576
04236;VERGONS;43.9152134;6.604631362
04237;LE VERNET;44.27660683;6.402975255
04240;VILLARS COLMARS;44.19829162;6.568766743
04241;VILLEMUS;43.8613318;5.709304431
04242;VILLENEUVE;43.89570569;5.857321287
04244;VOLONNE;44.12394789;6.034678275
04245;VOLX;43.87066761;5.831539738
05001;ABRIES;44.81634625;6.941644428
05003;AIGUILLES;44.77934429;6.875180982
05004;ANCELLE;44.61907039;6.2296217
05006;L ARGENTIERE LA BESSEE;44.78217327;6.472144973
05007;ARVIEUX;44.76389803;6.722308594
05008;ASPREMONT;44.49293455;5.720226822
05009;ASPRES LES CORPS;44.81288314;6.000768348
05010;ASPRES SUR BUECH;44.56175121;5.772032987
05011;AVANCON;44.53394753;6.191163901
05012;BARATIER;44.5049967;6.504942182
05013;BARCILLONNETTE;44.43006466;5.90582685
05014;BARRET SUR MEOUGE;44.26471889;5.728644351
05016;LA BATIE MONTSALEON;44.455945;5.749033046
05017;LA BATIE NEUVE;44.57975663;6.212679835
05018;LA BATIE VIEILLE;44.55532274;6.155707393
05019;LA BEAUME;44.54829147;5.653752143
05021;LE BERSAC;44.40569648;5.753409641
05022;BREZIERS;44.42105309;6.22281621
05023;BRIANCON;44.8994986;6.64947524
05024;BRUIS;44.46773667;5.503888637
05025;BUISSARD;44.65752693;6.147550688
05026;CEILLAC;44.65265162;6.803661898
05027;CERVIERES;44.85328485;6.764865473
05028;CHABESTAN;44.47757559;5.783053196
05029;CHABOTTES;44.64757832;6.167919786
05031;CHAMPCELLA;44.71757749;6.531380429
05032;CHAMPOLEON;44.7457461;6.273122099
05033;CHANOUSSE;44.36467602;5.660139229
05035;CHATEAUNEUF D OZE;44.50532552;5.897756029
05036;CHATEAUROUX LES ALPES;44.6423671;6.482908233
05037;CHATEAUVIEUX;44.48417483;6.051871146
05038;CHATEAU VILLE VIEILLE;44.76772897;6.80006565
05039;CHAUFFAYER;44.75815014;6.01187494
05040;CHORGES;44.54551243;6.287823926
05043;LES COSTES;44.74857434;6.047285651
05044;CREVOUX;44.53760654;6.624703727
05045;CROTS;44.49629383;6.461971526
05046;EMBRUN;44.58042949;6.475592989
05047;EOURRES;44.21383734;5.72894554
05048;L EPINE;44.42487965;5.61094352
05049;ESPARRON;44.46273959;5.893028482
05050;ESPINASSES;44.49317861;6.232713481
05051;ETOILE ST CYRICE;44.32097089;5.643777615
05052;EYGLIERS;44.6925245;6.666887414
05053;GARDE COLOMBE;44.3570512;5.783364902
05054;LA FARE EN CHAMPSAUR;44.66537663;6.058260389
05055;LA FAURIE;44.56745873;5.740405948
05056;FOREST ST JULIEN;44.62980144;6.141075313
05057;FOUILLOUSE;44.45318514;6.000631531
05058;FREISSINIERES;44.73649218;6.459377041
05059;LA FREISSINOUSE;44.53553417;6.008128046
05060;FURMEYER;44.53689842;5.875853588
05061;GAP;44.57986006;6.064860521
05062;LE GLAIZIL;44.74819228;5.974872478
05063;LA GRAVE;45.06011024;6.284069776
05064;LA CHAPELLE EN VALGAUDEMAR;44.81661779;6.242577934
05065;GUILLESTRE;44.66809874;6.701015871
05066;LA HAUTE BEAUME;44.56867884;5.628457038
05068;JARJAYES;44.50532996;6.10808996
05070;LARAGNE MONTEGLIN;44.33403454;5.816509571
05071;LARDIER ET VALENCA;44.43660465;5.973485268
05072;LAYE;44.64174173;6.071039433
05073;LAZER;44.35173007;5.849950604
05074;LETTRET;44.481164;6.072584528
05075;MANTEYER;44.53333211;5.949896675
05076;MEREUIL;44.38397415;5.712590987
05077;MOLINES EN QUEYRAS;44.71665535;6.891908061
05078;MONETIER ALLEMONT;44.39309625;5.933971903
05079;LE MONETIER LES BAINS;44.99561068;6.469664973
05080;MONTBRAND;44.59158291;5.667659516
05081;MONTCLUS;44.41493433;5.669920877
05082;MONT DAUPHIN;44.66905624;6.62465091
05084;MONTGARDIN;44.54358478;6.233056657
05085;MONTGENEVRE;44.93899322;6.72778259
05086;MONTJAY;44.36643809;5.614552705
05087;MONTMAUR;44.58973614;5.885611147
05088;MONTMORIN;44.45010678;5.55351372
05089;MONTROND;44.38676268;5.746261764
05090;LA MOTTE EN CHAMPSAUR;44.74073675;6.129301498
05091;MOYDANS;44.40997452;5.508973462
05092;NEFFES;44.49584176;6.025507376
05093;NEVACHE;45.04412864;6.598629355
05094;NOSSAGE ET BENEVENT;44.30972056;5.754522217
05095;LE NOYER;44.69999939;6.001026942
05096;ORCIERES;44.68409828;6.348975278
05097;ORPIERRE;44.31469338;5.706186076
05098;LES ORRES;44.48506665;6.579731422
05099;OZE;44.50582948;5.798754861
05100;PELLEAUTIER;44.5102663;5.998777399
05101;PELVOUX;44.89963921;6.435864309
05102;LA PIARRE;44.47840872;5.648032054
05103;LE POET;44.27897466;5.901313184
05104;POLIGNY;44.68488767;6.034318606
05106;PRUNIERES;44.54334126;6.336404312
05107;PUY ST ANDRE;44.89090366;6.56677781
05108;PUY ST EUSEBE;44.56858895;6.411298295
05109;PUY ST PIERRE;44.89731526;6.604707618
05110;PUY ST VINCENT;44.81442506;6.464747374
05111;PUY SANIERES;44.55569499;6.436674189
05112;RABOU;44.60614613;6.010779289
05113;RAMBAUD;44.54682279;6.131666135
05114;REALLON;44.6107754;6.360460394
05115;REMOLLON;44.47161852;6.159776579
05116;REOTIER;44.68135668;6.56457885
05117;RIBEYRET;44.41073046;5.558028621
05118;VAL BUECH MEOUGE;44.22079102;5.843422313
05119;RISOUL;44.62403808;6.623174027
05120;RISTOLAS;44.73584931;6.99202108
05121;ROCHEBRUNE;44.45225036;6.192493465
05122;LA ROCHE DE RAME;44.76566812;6.616443697
05123;LA ROCHE DES ARNAUDS;44.58381704;5.96045928
05124;LA ROCHETTE;44.59321141;6.148830981
05126;ROSANS;44.39987195;5.461465318
05127;ROUSSET;44.48437855;6.266691309
05128;ST ANDRE D EMBRUN;44.58665693;6.570721427
05129;ST ANDRE DE ROSANS;44.36473938;5.520973718
05130;ST APOLLINAIRE;44.55787041;6.353900353
05131;ST AUBAN D OZE;44.48831569;5.84847801
05132;ST BONNET EN CHAMPSAUR;44.68232699;6.102860502
05133;ST CHAFFREY;44.93464796;6.601390239
05134;ST CLEMENT SUR DURANCE;44.6478035;6.560740418
05135;STE COLOMBE;44.28892722;5.668349746
05136;ST CREPIN;44.72432605;6.635550273
05139;LE DEVOLUY;44.67754198;5.940473688
05140;ST ETIENNE LE LAUS;44.50803468;6.163230581
05141;ST EUSEBE EN CHAMPSAUR;44.72242691;6.036466086
05142;ST FIRMIN;44.79348581;6.025710581
05144;ST JACQUES EN VALGODEMARD;44.77406378;6.069646007
05145;ST JEAN ST NICOLAS;44.67449542;6.230858475
05146;ST JULIEN EN BEAUCHENE;44.62645706;5.719799759
05147;ST JULIEN EN CHAMPSAUR;44.66852889;6.129921943
05148;ST LAURENT DU CROS;44.6342791;6.108868297
05149;ST LEGER LES MELEZES;44.6468761;6.211718671
05150;STE MARIE;44.46399987;5.474156754
05151;ST MARTIN DE QUEYRIERES;44.83752573;6.582550107
05152;ST MAURICE EN VALGODEMARD;44.79818638;6.112788002
05153;ST MICHEL DE CHAILLOL;44.68889009;6.169820109
05154;ST PIERRE D ARGENCON;44.51994649;5.690465129
05155;ST PIERRE AVEZ;44.24854283;5.768382111
05156;ST SAUVEUR;44.53658205;6.529203017
05157;ST VERAN;44.68453081;6.890574377
05158;LE SAIX;44.46384783;5.833816167
05159;SALEON;44.32015511;5.775271694
05160;SALERANS;44.24212982;5.700960583
05161;LA SALLE LES ALPES;44.95266857;6.565356418
05162;LA SAULCE;44.43051245;6.010993832
05163;LE SAUZE DU LAC;44.48557424;6.323176393
05164;SAVINES LE LAC;44.5273257;6.393680593
05165;SAVOURNON;44.4240776;5.799277415
05166;SERRES;44.42138581;5.715497511
05167;SIGOTTIER;44.4580496;5.685311139
05168;SIGOYER;44.48023337;5.969517926
05169;SORBIERS;44.36253871;5.573253246
05170;TALLARD;44.45912207;6.044856029
05171;THEUS;44.48521061;6.19688253
05172;TRESCLEOUX;44.35495087;5.718257302
05173;UPAIX;44.31960737;5.883114324
05174;VAL DES PRES;44.95055222;6.66654835
05175;VALLOUISE;44.83082805;6.411970143
05176;VALSERRES;44.4892843;6.137893936
05177;VARS;44.59252209;6.713514569
05178;VENTAVON;44.38566564;5.888453746
05179;VEYNES;44.55715297;5.822860025
05180;LES VIGNEAUX;44.82127732;6.536771728
05181;VILLAR D ARENE;44.99972177;6.364284546
05182;VILLAR LOUBIERE;44.83672733;6.135597613
05183;VILLAR ST PANCRACE;44.83956858;6.650482941
05184;VITROLLES;44.42465265;5.947690083
06001;AIGLUN;43.8524188;6.934942333
06002;AMIRAT;43.89629735;6.812559505
06003;ANDON;43.77698568;6.823186473
06004;ANTIBES;43.58746515;7.106354183
06005;ASCROS;43.9193423;7.015506848
06006;ASPREMONT;43.77507317;7.244757712
06007;AURIBEAU SUR SIAGNE;43.61240687;6.912113567
06008;AUVARE;44.00742058;6.914678968
06009;BAIROLS;43.98705102;7.119694731
06010;LE BAR SUR LOUP;43.69929431;6.962727791
06011;BEAULIEU SUR MER;43.70790394;7.332569349
06012;BEAUSOLEIL;43.74772438;7.422221546
06013;BELVEDERE;44.05648722;7.3738312
06014;BENDEJUN;43.83032695;7.284471306
06015;BERRE LES ALPES;43.83787388;7.330763011
06016;BEUIL;44.10812429;6.972124581
06017;BEZAUDUN LES ALPES;43.80362197;7.09357147
06018;BIOT;43.62765581;7.083186129
06019;BLAUSASC;43.79346809;7.360334776
06020;LA BOLLENE VESUBIE;43.99514532;7.371843754
06021;BONSON;43.86229348;7.182787098
06022;BOUYON;43.82543998;7.125538728
06023;BREIL SUR ROYA;43.94043047;7.50391615
06024;BRIANCONNET;43.86494981;6.745013446
06025;LE BROC;43.81478221;7.159076339
06026;CABRIS;43.65995606;6.878255098
06027;CAGNES SUR MER;43.67151621;7.152757034
06028;CAILLE;43.76869531;6.756666503
06029;CANNES;43.55262028;7.004275927
06030;LE CANNET;43.57297686;7.006420578
06031;CANTARON;43.7712031;7.313168927
06032;CAP D AIL;43.72473923;7.401616175
06033;CARROS;43.78503906;7.184141599
06034;CASTAGNIERS;43.79211089;7.227741331
06035;CASTELLAR;43.82205666;7.498915711
06036;CASTILLON;43.83614511;7.464552475
06037;CAUSSOLS;43.73734474;6.902472332
06038;CHATEAUNEUF GRASSE;43.66563458;6.979140593
06039;CHATEAUNEUF VILLEVIEILLE;43.79990983;7.294124232
06040;CHATEAUNEUF D ENTRAUNES;44.16397016;6.835065557
06041;CIPIERES;43.76959269;6.928145263
06042;CLANS;44.00490973;7.178763669
06043;COARAZE;43.86649018;7.299133492
06044;LA COLLE SUR LOUP;43.68717014;7.097736438
06045;COLLONGUES;43.89359812;6.863831424
06046;COLOMARS;43.75942342;7.222632498
06047;CONSEGUDES;43.84069572;7.045036709
06048;CONTES;43.80929593;7.324245116
06049;COURMES;43.75255338;7.017376064
06050;COURSEGOULES;43.79155803;7.036226435
06051;LA CROIX SUR ROUDOULE;44.00030967;6.870199116
06052;CUEBRIS;43.88921258;7.004487943
06053;DALUIS;44.03872445;6.799970958
06054;DRAP;43.75824325;7.337240902
06055;DURANUS;43.89403506;7.280226862
06056;ENTRAUNES;44.21469606;6.76292204
06057;L ESCARENE;43.83397177;7.365658041
06058;ESCRAGNOLLES;43.72940334;6.783372889
06059;EZE;43.72892602;7.360571884
06060;FALICON;43.75253658;7.26554537
06061;LES FERRES;43.84242327;7.093427552
06062;FONTAN;44.02190526;7.544282152
06063;GARS;43.86052267;6.816762945
06064;GATTIERES;43.76521954;7.168774682
06065;LA GAUDE;43.72142377;7.160399264
06066;GILETTE;43.84819625;7.161323411
06067;GORBIO;43.7860282;7.44603825
06068;GOURDON;43.72424938;6.963560651
06069;GRASSE;43.65563943;6.931905082
06070;GREOLIERES;43.80700065;6.931964962
06071;GUILLAUMES;44.08806832;6.874935015
06072;ILONSE;44.03479828;7.089764758
06073;ISOLA;44.18725853;7.074880623
06074;LANTOSQUE;43.97064575;7.304857301
06075;LEVENS;43.8500976;7.240330273
06076;LIEUCHE;44.00156694;7.032410786
06077;LUCERAM;43.90057269;7.352655753
06078;MALAUSSENE;43.91532326;7.141120635
06079;MANDELIEU LA NAPOULE;43.53805105;6.918089365
06080;MARIE;44.03460771;7.157446532
06081;LE MAS;43.83691295;6.858940747
06082;MASSOINS;43.94770227;7.124302524
06083;MENTON;43.79082337;7.493656124
06084;MOUANS SARTOUX;43.6185304;6.964944267
06085;MOUGINS;43.59614106;7.001294449
06086;MOULINET;43.95369914;7.414004054
06087;LES MUJOULS;43.87198477;6.859122794
06088;NICE;43.71199927;7.238268895
06089;OPIO;43.65756107;7.008608642
06090;PEGOMAS;43.58655532;6.922248379
06091;PEILLE;43.80646483;7.411110167
06092;PEILLON;43.77273529;7.371479707
06093;LA PENNE;43.92468617;6.94222405
06094;PEONE;44.12992504;6.920985839
06095;PEYMEINADE;43.63052945;6.881665209
06096;PIERLAS;44.03467608;7.016975867
06097;PIERREFEU;43.88519128;7.071008137
06098;PUGET ROSTANG;43.98720048;6.936855822
06099;PUGET THENIERS;43.95216492;6.906093114
06100;REVEST LES ROCHES;43.88312974;7.167782771
06101;RIGAUD;43.99293329;6.975050834
06102;RIMPLAS;44.10276444;7.145053385
06103;ROQUEBILLIERE;44.02709518;7.292694672
06104;ROQUEBRUNE CAP MARTIN;43.7638279;7.458736161
06105;ROQUEFORT LES PINS;43.67417325;7.053012727
06106;ROQUESTERON;43.86779062;7.024136117
06107;LA ROQUE EN PROVENCE;43.84915342;6.990119804
06108;LA ROQUETTE SUR SIAGNE;43.58490925;6.950497948
06109;LA ROQUETTE SUR VAR;43.83327356;7.204662433
06110;ROUBION;44.10850476;7.028029732
06111;ROURE;44.11891387;7.066802965
06112;LE ROURET;43.67956128;7.009625536
06113;STE AGNES;43.80553446;7.46128497
06114;ST ANDRE DE LA ROCHE;43.74587624;7.288713726
06115;ST ANTONIN;43.9078444;6.976612689
06116;ST AUBAN;43.83097901;6.740065061
06117;ST BLAISE;43.81293379;7.230223363
06118;ST CEZAIRE SUR SIAGNE;43.65942591;6.803293762
06119;ST DALMAS LE SELVAGE;44.28946568;6.840845396
06120;ST ETIENNE DE TINEE;44.24914928;6.924524451
06121;ST JEAN CAP FERRAT;43.68717889;7.329936324
06122;ST JEANNET;43.75884539;7.140732118
06123;ST LAURENT DU VAR;43.68596258;7.182187918
06124;ST LEGER;44.00265977;6.82309685
06125;ST MARTIN D ENTRAUNES;44.14944141;6.74588335
06126;ST MARTIN DU VAR;43.81661724;7.199292204
06127;ST MARTIN VESUBIE;44.1020722;7.302440716
06128;ST PAUL DE VENCE;43.69501903;7.121169519
06129;ST SAUVEUR SUR TINEE;44.12106766;7.11814486
06130;ST VALLIER DE THIEY;43.69689503;6.850627487
06131;SALLAGRIFFON;43.88076954;6.913737688
06132;SAORGE;43.99353188;7.537673484
06133;SAUZE;44.08521999;6.800723246
06134;SERANON;43.76566628;6.69043297
06135;SIGALE;43.87579991;6.965586181
06136;SOSPEL;43.88446074;7.44794905
06137;SPERACEDES;43.65245068;6.856856704
06138;THEOULE SUR MER;43.49853454;6.929652484
06139;THIERY;43.974139;7.042456714
06140;LE TIGNET;43.62358146;6.852617918
06141;TOUDON;43.89146419;7.108407706
06142;TOUET DE L ESCARENE;43.85203432;7.377992104
06143;TOUET SUR VAR;43.94331235;7.013476401
06144;LA TOUR;43.96268773;7.199949146
06145;TOURETTE DU CHATEAU;43.87827521;7.137345115
06146;TOURNEFORT;43.94139888;7.158503151
06147;TOURRETTE LEVENS;43.78607372;7.272556821
06148;TOURRETTES SUR LOUP;43.71745366;7.039893763
06149;LA TRINITE;43.7433481;7.339460739
06150;LA TURBIE;43.7451419;7.397918117
06151;UTELLE;43.92731814;7.238644629
06152;VALBONNE;43.62828833;7.029544767
06153;VALDEBLORE;44.11275965;7.195718912
06154;VALDEROURE;43.79420445;6.710035686
06155;VALLAURIS;43.5766473;7.058366129
06156;VENANSON;44.04133646;7.239185084
06157;VENCE;43.73846406;7.101944361
06158;VILLARS SUR VAR;43.95186633;7.080245211
06159;VILLEFRANCHE SUR MER;43.71221531;7.322254105
06160;VILLENEUVE D ENTRAUNES;44.12214163;6.781905152
06161;VILLENEUVE LOUBET;43.64925607;7.107284349
06162;LA BRIGUE;44.07145556;7.651478289
06163;TENDE;44.09976693;7.540531794
07001;ACCONS;44.88853282;4.392429684
07002;AILHON;44.59861068;4.333058098
07003;AIZAC;44.71967624;4.330672916
07004;AJOUX;44.75505739;4.485653708
07005;ALBA LA ROMAINE;44.55444391;4.595976951
07006;ALBON D ARDECHE;44.81529381;4.425038976
07007;ALBOUSSIERE;44.93975846;4.734132133
07008;ALISSAS;44.7070337;4.624063608
07009;ANDANCE;45.22795906;4.797385937
07010;ANNONAY;45.24609024;4.650269473
07011;ANTRAIGUES SUR VOLANE;44.73931832;4.355175894
07012;ARCENS;44.90050867;4.31778204
07013;ARDOIX;45.19136057;4.743204277
07014;ARLEBOSC;45.04030378;4.63051185
07015;ARRAS SUR RHONE;45.14367767;4.803631212
07016;ASPERJOC;44.69506454;4.350896295
07017;LES ASSIONS;44.42547769;4.184893371
07018;ASTET;44.68470578;4.026496063
07019;AUBENAS;44.61021271;4.396389814
07020;AUBIGNAS;44.58547859;4.633890759
07022;BAIX;44.70637888;4.751064975
07023;BALAZUC;44.50828606;4.372447258
07024;BANNE;44.36077827;4.151138045
07025;BARNAS;44.66896643;4.159258518
07026;LE BEAGE;44.85566347;4.130434657
07027;BEAUCHASTEL;44.8294995;4.797153821
07028;BEAULIEU;44.35463111;4.250620828
07029;BEAUMONT;44.54265035;4.171810454
07030;BEAUVENE;44.86951327;4.511623624
07031;BERRIAS ET CASTELJAU;44.38323026;4.207497154
07032;BERZEME;44.6552337;4.572032941
07033;BESSAS;44.337593;4.298326281
07034;BIDON;44.35679607;4.544525678
07035;BOFFRES;44.9190204;4.696065111
07036;BOGY;45.28010671;4.76743317
07037;BOREE;44.89507821;4.226923752
07038;BORNE;44.61722237;4.04171006
07039;BOZAS;45.05873575;4.648358887
07040;BOUCIEU LE ROI;45.02884284;4.68820164
07041;BOULIEU LES ANNONAY;45.26732334;4.645368944
07042;BOURG ST ANDEOL;44.38308669;4.613983651
07044;BROSSAINC;45.32717144;4.678514831
07045;BURZET;44.74823289;4.233856059
07047;CELLIER DU LUC;44.67346775;3.901767256
07048;CHALENCON;44.87979127;4.557720693
07049;LE CHAMBON;44.82990658;4.299250077
07050;CHAMBONAS;44.42630514;4.129095049
07051;CHAMPAGNE;45.27678674;4.798262116
07052;CHAMPIS;44.95561987;4.752418513
07053;CHANDOLAS;44.41363724;4.243311442
07054;CHANEAC;44.93004245;4.306926882
07055;CHARMES SUR RHONE;44.86675971;4.833420545
07056;CHARNAS;45.34285884;4.73157805
07058;CHASSIERS;44.56606363;4.30216797
07059;CHATEAUBOURG;44.98742441;4.838361162
07060;CHATEAUNEUF DE VERNOUX;44.92492405;4.6421911
07061;CHAUZON;44.49138885;4.344496098
07062;CHAZEAUX;44.59510616;4.297795599
07063;CHEMINAS;45.13076572;4.740879073
07064;LE CHEYLARD;44.90763919;4.421084794
07065;CHIROLS;44.68799813;4.295186248
07066;CHOMERAC;44.71023646;4.670223758
07067;COLOMBIER LE CARDINAL;45.26457301;4.745652608
07068;COLOMBIER LE JEUNE;45.01156907;4.715366233
07069;COLOMBIER LE VIEUX;45.05901483;4.698980794
07070;CORNAS;44.9664601;4.84063934
07071;COUCOURON;44.79491924;3.96166497
07072;COUX;44.74328382;4.623063338
07073;LE CRESTET;45.00986512;4.639037424
07074;CREYSSEILLES;44.75984969;4.530237811
07075;CROS DE GEORAND;44.7994634;4.127864661
07076;CRUAS;44.65664209;4.756588244
07077;DARBRES;44.65995541;4.515928019
07078;DAVEZIEUX;45.2551141;4.702104825
07079;DESAIGNES;44.99210878;4.50096602
07080;DEVESSET;45.06609879;4.39288169
07081;DOMPNAC;44.56286566;4.107167951
07082;DORNAS;44.85191507;4.358424221
07083;DUNIERE SUR EYRIEUX;44.83444266;4.651155769
07084;ECLASSAN;45.16065332;4.748884855
07085;EMPURANY;45.02633857;4.59724737
07086;ETABLES;45.094857;4.739505297
07087;FABRAS;44.64843896;4.281195911
07088;FAUGERES;44.47912026;4.139716087
07089;FELINES;45.31606763;4.727062763
07090;FLAVIAC;44.75073528;4.660019925
07091;FONS;44.58144963;4.34709805
07092;FREYSSENET;44.68861942;4.546951148
07093;GENESTELLE;44.73661483;4.385228245
07094;GILHAC ET BRUZAC;44.86324107;4.745403084
07095;GILHOC SUR ORMEZE;44.98552828;4.677420674
07096;GLUIRAS;44.84556021;4.525832081
07097;GLUN;45.00701635;4.82465207
07098;GOURDON;44.72940581;4.454784982
07099;GRAS;44.44537;4.534282581
07100;GRAVIERES;44.42139741;4.071796789
07101;GROSPIERRES;44.39308274;4.286927374
07102;GUILHERAND GRANGES;44.93013183;4.866296039
07103;INTRES;44.98647399;4.344151181
07104;ISSAMOULENC;44.78831372;4.455705992
07105;ISSANLAS;44.76693832;4.015434171
07106;ISSARLES;44.85234716;4.05339794
07107;JAUJAC;44.6298204;4.238151397
07108;JAUNAC;44.9198243;4.392702547
07109;JOANNAS;44.57254782;4.246333743
07110;JOYEUSE;44.47053199;4.247536676
07111;JUVINAS;44.70437581;4.307283629
07112;LABASTIDE SUR BESORGUES;44.74876576;4.298122955
07113;LABASTIDE DE VIRAC;44.35332576;4.419788482
07114;LABATIE D ANDAURE;45.03276557;4.49525714
07115;LABEAUME;44.46808706;4.311050826
07116;LABEGUDE;44.64204811;4.357380526
07117;LABLACHERE;44.46022902;4.213970844
07118;LABOULE;44.59552017;4.169725384
07119;LE LAC D ISSARLES;44.82333242;4.07465283
07120;LACHAMP RAPHAEL;44.80064517;4.287594405
07121;LACHAPELLE GRAILLOUSE;44.81176181;4.018864754
07122;LACHAPELLE SOUS AUBENAS;44.56226166;4.359069475
07123;LACHAPELLE SOUS CHANEAC;44.95413245;4.319042237
07124;LAFARRE;45.07847927;4.516599273
07126;LAGORCE;44.44490164;4.431416398
07127;LALEVADE D ARDECHE;44.65212009;4.313923733
07128;LALOUVESC;45.11565848;4.525556315
07129;LAMASTRE;44.98225399;4.590810755
07130;LANARCE;44.7292438;3.996885448
07131;LANAS;44.53692642;4.383900955
07132;LARGENTIERE;44.53384847;4.301280545
07133;LARNAS;44.45434561;4.596069135
07134;LAURAC EN VIVARAIS;44.50330572;4.288304922
07135;LAVAL D AURELLE;44.57227393;3.972649277
07136;LAVEYRUNE;44.62072588;3.919338192
07137;LAVILLATTE;44.74112834;3.951960792
07138;LAVILLEDIEU;44.58216739;4.447820502
07139;LAVIOLLE;44.76212847;4.333545716
07140;LEMPS;45.09729224;4.778993534
07141;LENTILLERES;44.60924199;4.298201323
07142;LESPERON;44.73428736;3.895476168
07143;LIMONY;45.35343268;4.750265477
07144;LOUBARESSE;44.5912763;4.050884773
07145;LUSSAS;44.61921771;4.466304619
07146;LYAS;44.75684058;4.596914404
07147;MALARCE SUR LA THINES;44.47802722;4.050119241
07148;MALBOSC;44.34951495;4.072460278
07149;MARCOLS LES EAUX;44.80585289;4.389056954
07150;MARIAC;44.88596382;4.353370341
07151;MARS;45.01045438;4.329000511
07152;MAUVES;45.02880283;4.819532442
07153;MAYRES;44.66461435;4.100926748
07154;MAZAN L ABBAYE;44.72463646;4.081026098
07155;MERCUER;44.62606971;4.350779044
07156;MEYRAS;44.67756291;4.260014102
07157;MEYSSE;44.61933866;4.716492529
07158;MEZILHAC;44.80689212;4.341847218
07159;MIRABEL;44.59605742;4.496164942
07160;MONESTIER;45.19994741;4.504755519
07161;MONTPEZAT SOUS BAUZON;44.71674718;4.196497066
07162;MONTREAL;44.51823023;4.294205563
07163;MONTSELGUES;44.53327607;4.003787218
07165;NONIERES;44.92770792;4.476893638
07166;NOZIERES;45.03409432;4.546459349
07167;LES OLLIERES SUR EYRIEUX;44.81018519;4.61974465
07168;ORGNAC L AVEN;44.31010024;4.423697153
07169;OZON;45.16318586;4.796585859
07170;PAILHARES;45.07966484;4.557278396
07171;PAYZAC;44.45501319;4.149254003
07172;PEAUGRES;45.28578071;4.727478057
07173;PEREYRES;44.77970763;4.260987726
07174;PEYRAUD;45.29640313;4.783613947
07175;LE PLAGNAL;44.69337525;3.951203502
07176;PLANZOLLES;44.48621533;4.157645396
07177;PLATS;45.01564787;4.780345949
07178;PONT DE LABEAUME;44.66575877;4.297387683
07179;POURCHERES;44.73926831;4.504409527
07181;LE POUZIN;44.75174562;4.748585269
07182;PRADES;44.63279192;4.310547978
07183;PRADONS;44.47301974;4.375844457
07184;PRANLES;44.78085117;4.575204312
07185;PREAUX;45.13628133;4.65371648
07186;PRIVAS;44.72253911;4.594495387
07187;PRUNET;44.59543986;4.253875645
07188;QUINTENAS;45.19225132;4.695045984
07189;RIBES;44.50363674;4.197752933
07190;ROCHECOLOMBE;44.51847127;4.448405565
07191;ROCHEMAURE;44.58926435;4.692119963
07192;ROCHEPAULE;45.08567159;4.459426712
07193;ROCHER;44.58058139;4.279067594
07194;ROCHESSAUVE;44.68067895;4.611240856
07195;LA ROCHETTE;44.92175875;4.231649498
07196;ROCLES;44.56800378;4.208131317
07197;ROIFFIEUX;45.21893974;4.649221444
07198;ROMPON;44.77871954;4.730098566
07199;ROSIERES;44.49213571;4.262039433
07200;LE ROUX;44.72111573;4.143335865
07201;RUOMS;44.44790308;4.347861893
07202;SABLIERES;44.54378643;4.063259767
07203;SAGNES ET GOUDOULET;44.80140424;4.215812246
07204;ST AGREVE;45.00529806;4.412856874
07205;ST ALBAN D AY;45.18623228;4.631797842
07206;ST ALBAN EN MONTAGNE;44.71041608;3.917950058
07207;ST ALBAN AURIOLLES;44.43426531;4.295157573
07208;ST ANDEOL DE BERG;44.53002075;4.536611942
07209;ST ANDEOL DE FOURCHADES;44.84499548;4.288227675
07210;ST ANDEOL DE VALS;44.69259983;4.401006626
07211;ST ANDRE DE CRUZIERES;44.31516364;4.212411724
07212;ST ANDRE EN VIVARAIS;45.11648534;4.409603033
07213;ST ANDRE LACHAMP;44.50754532;4.152212757
07214;ST APOLLINAIRE DE RIAS;44.92046907;4.590524025
07215;ST BARTHELEMY LE MEIL;44.88466274;4.478845325
07216;ST BARTHELEMY GROZON;44.95961965;4.64950098
07217;ST BARTHELEMY LE PLAIN;45.04546011;4.743680131
07218;ST BASILE;44.94903553;4.561600119
07219;ST BAUZILE;44.67266823;4.668695845
07220;ST CHRISTOL;44.86963069;4.43824066
07221;ST CIERGE LA SERRE;44.79355735;4.680272429
07222;ST CIERGE SOUS LE CHEYLARD;44.92614914;4.453598299
07223;ST CIRGUES DE PRADES;44.62021118;4.274293988
07224;ST CIRGUES EN MONTAGNE;44.76813449;4.089025743
07225;ST CLAIR;45.27558929;4.68712205
07226;ST CLEMENT;44.94999949;4.260186608
07227;ST CYR;45.24906012;4.73642641
07228;ST DESIRAT;45.258609;4.779403828
07229;ST DIDIER SOUS AUBENAS;44.61175953;4.420227191
07230;ST ETIENNE DE BOULOGNE;44.70039196;4.473168196
07231;ST ETIENNE DE FONTBELLON;44.59858905;4.373889803
07232;ST ETIENNE DE LUGDARES;44.64729961;3.973207312
07233;ST ETIENNE DE SERRE;44.80122297;4.523623267
07234;ST ETIENNE DE VALOUX;45.24295511;4.776991442
07235;STE EULALIE;44.82871472;4.185977933
07236;ST FELICIEN;45.07687934;4.609751343
07237;ST FORTUNAT SUR EYRIEUX;44.83498685;4.689142715
07238;ST GENEST DE BEAUZON;44.44512738;4.18697019
07239;ST GENEST LACHAMP;44.84398915;4.424247537
07240;ST GEORGES LES BAINS;44.8592532;4.80969715
07241;ST GERMAIN;44.55310579;4.448256092
07242;ST GINEIS EN COIRON;44.63370661;4.538942947
07243;ST JACQUES D ATTICIEUX;45.33182633;4.663330608
07244;ST JEAN CHAMBRE;44.90833621;4.561640827
07245;ST JEAN DE MUZOLS;45.07915129;4.79987362
07247;ST JEAN LE CENTENIER;44.58737734;4.538126535
07248;ST JEAN ROURE;44.95544532;4.418854388
07249;ST JEURE D ANDAURE;45.04783737;4.463956852
07250;ST JEURE D AY;45.14480399;4.710289667
07251;ST JOSEPH DES BANCS;44.74816149;4.413975255
07252;ST JULIEN BOUTIERES;44.96876203;4.346651549
07253;ST JULIEN DU GUA;44.77079705;4.440375217
07254;ST JULIEN DU SERRE;44.66002111;4.403958812
07255;ST JULIEN EN ST ALBAN;44.75862025;4.69261801
07256;ST JULIEN LABROUSSE;44.90796584;4.516400154
07257;ST JULIEN LE ROUX;44.86752036;4.675924829
07258;ST JULIEN VOCANCE;45.16701093;4.487777604
07259;ST JUST D ARDECHE;44.29320279;4.62448546
07260;ST LAGER BRESSAC;44.69167509;4.716212774
07261;ST LAURENT DU PAPE;44.82320836;4.744947807
07262;ST LAURENT LES BAINS;44.59713656;3.958069299
07263;ST LAURENT SOUS COIRON;44.66416379;4.484707569
07264;ST MARCEL D ARDECHE;44.32999654;4.606564906
07265;ST MARCEL LES ANNONAY;45.28856826;4.629477429
07266;STE MARGUERITE LAFIGERE;44.48455835;3.997755716
07267;ST MARTIAL;44.86274384;4.251322399
07268;ST MARTIN D ARDECHE;44.30686213;4.573186572
07269;ST MARTIN DE VALAMAS;44.93659102;4.370761692
07270;ST MARTIN SUR LAVEZON;44.63473747;4.65644802
07272;ST MAURICE D ARDECHE;44.51898781;4.404836434
07273;ST MAURICE D IBIE;44.48359935;4.482445903
07274;ST MAURICE EN CHALENCON;44.8548082;4.582454007
07275;ST MELANY;44.5391166;4.12911827
07276;ST MICHEL D AURANCE;44.89871797;4.456758778
07277;ST MICHEL DE BOULOGNE;44.69910002;4.432746368
